millis,iso_utc,display_altitude_ft,raw_altitude_ft,vario_mps,temp_f,humidity_pct,gps_fix,latitude,longitude,gps_altitude_m,gps_speed_kmph,gps_sats_used,gps_sats_seen,gps_hdop,battery_voltage,battery_percent,pitch_deg,roll_deg,heading_deg,g_force
5005,2026-07-02T06:32:52Z,92.55,-38.74,0.00,72.2,48.4,1,26.806808,-80.273781,7.30,0.24,8,8,1.29,4.10,99,,,,
10308,2026-07-02T06:32:57Z,92.64,-38.71,-0.01,72.2,48.7,1,26.806806,-80.273783,7.90,0.31,8,9,1.29,0.00,0,,,,
15308,2026-07-02T06:33:02Z,92.69,-38.64,0.00,72.2,48.3,1,26.806806,-80.273782,8.70,0.43,8,1,1.29,4.13,98,,,,
20308,2026-07-02T06:33:07Z,92.67,-38.64,-0.00,72.2,48.6,1,26.806809,-80.273785,8.70,0.39,8,10,1.37,0.00,98,,,,
25308,2026-07-02T06:33:12Z,92.74,-38.58,0.00,72.2,49.2,1,26.806813,-80.273778,7.30,0.24,8,9,1.29,4.14,98,,,,
30320,2026-07-02T06:33:17Z,92.78,-38.51,0.01,72.3,48.4,1,26.806818,-80.273777,7.00,0.26,9,8,1.22,4.13,98,,,,
35351,2026-07-02T06:33:22Z,92.85,-38.50,-0.00,72.3,49.6,1,26.806821,-80.273775,7.30,0.70,9,8,1.22,0.00,0,,,,
40351,2026-07-02T06:33:27Z,92.87,-38.45,0.01,72.3,48.9,1,26.806823,-80.273779,7.60,0.54,9,8,1.22,0.00,0,,,,
45353,2026-07-02T06:33:32Z,92.87,-38.46,-0.00,72.3,48.5,1,26.806826,-80.273784,7.10,0.57,9,8,1.22,0.00,0,,,,
50401,2026-07-02T06:33:37Z,92.91,-38.45,-0.00,72.4,47.8,1,26.806823,-80.273776,6.80,0.57,9,8,1.22,0.00,0,,,,
55403,2026-07-02T06:33:42Z,92.96,-38.36,-0.01,72.4,47.8,1,26.806823,-80.273777,6.60,0.67,9,8,1.22,0.00,0,,,,
60408,2026-07-02T06:33:47Z,93.00,-38.36,-0.00,72.4,48.5,1,26.806823,-80.273784,9.80,0.15,9,8,1.22,0.00,0,,,,
65409,2026-07-02T06:33:52Z,93.03,-38.27,-0.00,72.4,48.2,1,26.806821,-80.273793,12.20,0.24,9,8,1.32,0.00,0,,,,
70412,2026-07-02T06:33:57Z,93.07,-38.26,0.01,72.5,48.3,1,26.806817,-80.273800,13.10,0.39,9,8,1.23,0.00,0,,,,
75412,2026-07-02T06:34:02Z,93.11,-38.22,-0.00,72.5,48.2,1,26.806815,-80.273804,14.00,0.30,9,8,1.22,0.00,0,,,,
5003,2026-07-02T06:34:16Z,93.19,-38.09,0.00,72.6,47.7,1,26.806817,-80.273805,14.30,0.15,10,2,1.19,4.14,98,,,,
10016,2026-07-02T06:34:21Z,93.27,-38.07,0.00,72.6,47.5,1,26.806817,-80.273804,13.90,0.22,10,2,1.19,4.09,98,,,,
15343,2026-07-02T06:34:26Z,93.31,-38.05,-0.01,72.7,48.0,1,26.806818,-80.273803,13.40,0.22,10,1,1.20,0.00,0,,,,
20391,2026-07-02T06:34:31Z,93.34,-37.99,0.00,72.7,47.8,1,26.806818,-80.273803,13.70,0.04,10,7,1.20,0.00,0,,,,
25393,2026-07-02T06:34:36Z,93.39,-37.93,-0.00,72.7,47.8,1,26.806818,-80.273800,13.20,0.59,10,3,1.20,0.00,0,,,,
30395,2026-07-02T06:34:41Z,93.44,-37.86,0.01,72.8,47.9,1,26.806816,-80.273800,13.10,0.20,11,3,1.14,0.00,0,,,,
35397,2026-07-02T06:34:46Z,93.50,-37.79,0.00,72.8,47.6,1,26.806815,-80.273801,13.40,0.20,11,3,1.09,0.00,0,,,,
40399,2026-07-02T06:34:51Z,93.52,-37.82,0.00,72.7,47.7,1,26.806815,-80.273802,12.90,0.35,11,3,1.08,0.00,0,,,,
45399,2026-07-02T06:34:56Z,93.55,-37.78,-0.00,72.8,47.7,1,26.806815,-80.273803,12.00,0.35,11,3,1.21,0.00,0,,,,
50400,2026-07-02T06:35:01Z,93.60,-37.71,-0.00,72.8,47.2,1,26.806817,-80.273803,10.90,0.26,11,3,1.35,0.00,0,,,,
55400,2026-07-02T06:35:06Z,93.64,-37.66,-0.00,72.9,47.3,1,26.806815,-80.273802,11.00,0.20,11,3,1.21,0.00,0,,,,
60400,2026-07-02T06:35:11Z,93.67,-37.66,0.00,72.9,47.7,1,26.806815,-80.273803,11.30,0.11,11,3,1.08,0.00,0,,,,
65400,2026-07-02T06:35:16Z,93.69,-37.63,-0.00,72.8,47.1,1,26.806816,-80.273803,11.00,0.28,11,3,1.21,0.00,0,,,,
70400,2026-07-02T06:35:21Z,93.75,-37.59,0.01,72.8,46.7,1,26.806818,-80.273803,10.30,0.11,12,3,1.19,0.00,0,,,,
75400,2026-07-02T06:35:26Z,93.79,-37.53,0.01,72.9,46.7,1,26.806818,-80.273801,9.70,0.07,12,3,1.06,0.00,0,,,,
80400,2026-07-02T06:35:31Z,93.85,-37.51,0.00,72.9,46.4,1,26.806818,-80.273801,9.40,0.15,12,3,1.11,0.00,0,,,,
85401,2026-07-02T06:35:36Z,93.85,-37.50,0.00,72.9,48.6,1,26.806816,-80.273799,9.70,0.35,12,3,1.11,0.00,0,,,,
90401,2026-07-02T06:35:41Z,93.89,-37.44,0.00,72.8,47.4,1,26.806815,-80.273799,10.20,0.74,12,3,1.11,0.00,0,,,,
95401,2026-07-02T06:35:46Z,93.91,-37.42,-0.00,72.9,46.9,1,26.806817,-80.273797,10.40,0.00,12,3,1.06,0.00,0,,,,
100401,2026-07-02T06:35:51Z,93.93,-37.38,-0.00,72.9,46.8,1,26.806818,-80.273796,10.90,0.52,12,3,1.11,0.00,0,,,,
105401,2026-07-02T06:35:56Z,93.95,-37.39,-0.00,72.9,46.9,1,26.806818,-80.273796,11.00,0.35,12,3,1.11,0.00,0,,,,
110402,2026-07-02T06:36:01Z,93.98,-37.34,0.00,73.0,46.9,1,26.806819,-80.273796,11.10,0.31,12,3,1.11,0.00,0,,,,
115435,2026-07-02T06:36:06Z,93.99,-37.34,-0.01,73.0,46.9,1,26.806818,-80.273797,12.20,0.35,12,8,1.14,0.00,98,,,,
120446,2026-07-02T06:36:11Z,94.03,-37.32,-0.01,73.0,46.5,1,26.806815,-80.273794,14.10,0.09,12,8,1.14,4.09,98,,,,
125458,2026-07-02T06:36:16Z,94.05,-37.29,0.00,73.1,46.4,1,26.806813,-80.273795,16.10,0.26,12,8,1.13,4.09,98,,,,
130471,2026-07-02T06:36:21Z,94.06,-37.28,0.00,73.1,46.5,1,26.806812,-80.273798,17.30,0.19,12,3,1.06,4.09,97,,,,
135474,2026-07-02T06:36:26Z,94.04,-37.30,-0.00,73.1,46.7,1,26.806812,-80.273799,18.20,0.04,12,7,1.06,0.00,0,,,,
140474,2026-07-02T06:36:31Z,94.06,-37.27,-0.01,73.1,46.8,1,26.806812,-80.273800,19.30,0.63,12,8,1.08,0.00,0,,,,
145474,2026-07-02T06:36:36Z,94.08,-37.26,-0.00,73.1,46.4,1,26.806812,-80.273799,20.50,0.13,12,8,1.21,0.00,0,,,,
150525,2026-07-02T06:36:41Z,94.08,-37.23,-0.00,73.1,47.0,1,26.806811,-80.273797,21.10,0.20,12,8,1.21,4.09,97,,,,
155827,2026-07-02T06:36:47Z,94.09,-37.24,0.00,73.1,46.7,1,26.806811,-80.273797,22.80,0.46,12,1,1.31,0.00,0,,,,
5304,2026-07-02T06:36:54Z,94.03,-37.24,0.00,73.2,47.2,1,26.806809,-80.273807,34.30,0.19,12,9,1.20,0.00,0,,,,
5053,2026-07-02T06:37:02Z,94.19,-37.19,0.00,73.2,46.5,1,26.806834,-80.273735,5.30,0.26,9,2,1.40,4.11,98,,,,
10053,2026-07-02T06:37:07Z,94.05,-37.28,0.00,73.2,47.5,1,26.806808,-80.273762,1.90,0.50,11,1,1.14,4.14,98,,,,
15061,2026-07-02T06:37:12Z,94.06,-37.27,-0.00,73.3,47.0,1,26.806817,-80.273772,4.00,0.15,12,9,1.18,4.14,98,,,,
20064,2026-07-02T06:37:17Z,94.06,-37.28,-0.00,73.3,46.8,1,26.806820,-80.273780,4.90,0.19,12,9,1.18,4.13,98,,,,
25070,2026-07-02T06:37:22Z,94.03,-37.31,-0.00,73.4,47.8,1,26.806822,-80.273781,5.40,0.19,12,9,1.06,4.13,98,,,,
30076,2026-07-02T06:37:27Z,94.04,-37.30,0.00,73.3,47.2,1,26.806822,-80.273781,5.90,0.15,12,1,1.06,4.13,98,,,,
35091,2026-07-02T06:37:32Z,94.08,-37.26,0.01,73.4,46.6,1,26.806821,-80.273783,6.70,0.11,12,9,1.06,4.09,98,,,,
40352,2026-07-02T06:37:38Z,94.07,-37.24,-0.00,73.5,46.3,1,26.806821,-80.273783,6.60,0.41,12,9,1.24,0.00,0,,,,
45352,2026-07-02T06:37:43Z,94.07,-37.24,0.01,73.4,45.7,1,26.806817,-80.273788,11.10,0.31,12,1,1.11,4.13,98,,,,
50352,2026-07-02T06:37:48Z,94.05,-37.30,-0.00,73.4,46.6,1,26.806816,-80.273791,13.40,0.30,12,3,1.06,0.00,98,,,,
55352,2026-07-02T06:37:53Z,94.05,-37.30,-0.01,73.5,46.5,1,26.806816,-80.273792,12.90,0.33,12,3,1.06,4.14,98,,,,
60355,2026-07-02T06:37:58Z,94.03,-37.31,-0.01,73.5,46.4,1,26.806818,-80.273794,11.50,0.13,12,3,1.06,0.00,0,,,,
65355,2026-07-02T06:38:03Z,94.03,-37.28,0.01,73.6,46.7,1,26.806817,-80.273794,11.60,0.46,12,3,1.07,4.10,98,,,,
70387,2026-07-02T06:38:08Z,94.03,-37.29,0.00,73.6,46.2,1,26.806817,-80.273794,12.20,0.50,12,2,1.06,0.00,98,,,,
75407,2026-07-02T06:38:13Z,94.03,-37.31,0.00,73.6,46.1,1,26.806815,-80.273796,14.00,0.39,12,1,1.15,0.00,0,,,,
80407,2026-07-02T06:38:18Z,94.00,-37.33,-0.00,73.7,46.1,1,26.806816,-80.273798,14.50,0.35,12,3,1.20,0.00,0,,,,
85408,2026-07-02T06:38:23Z,93.99,-37.36,0.00,73.7,46.1,1,26.806816,-80.273800,15.00,0.11,12,3,1.24,0.00,0,,,,
90410,2026-07-02T06:38:28Z,93.99,-37.34,0.00,73.7,46.1,1,26.806816,-80.273803,15.70,0.09,12,4,1.30,0.00,0,,,,
95412,2026-07-02T06:38:33Z,93.98,-37.35,-0.00,73.8,46.1,1,26.806815,-80.273805,16.70,0.26,12,4,1.20,0.00,0,,,,
100413,2026-07-02T06:38:38Z,93.98,-37.33,0.00,73.8,46.0,1,26.806812,-80.273810,18.90,0.17,12,1,1.09,0.00,0,,,,
105461,2026-07-02T06:38:43Z,93.96,-37.34,0.01,73.9,45.9,1,26.806811,-80.273815,21.60,0.06,12,10,1.07,4.13,98,,,,
110467,2026-07-02T06:38:48Z,93.92,-37.41,-0.00,73.8,45.9,1,26.806809,-80.273820,25.70,0.20,12,2,1.07,4.13,98,,,,
115471,2026-07-02T06:38:53Z,93.96,-37.38,0.00,73.8,45.0,1,26.806807,-80.273824,26.40,0.31,12,4,1.20,4.09,98,,,,
120471,2026-07-02T06:38:58Z,93.97,-37.35,0.02,73.8,44.7,1,26.806811,-80.273831,26.10,0.22,12,2,1.07,4.13,98,,,,
125473,2026-07-02T06:39:03Z,94.05,-37.36,-0.08,73.9,45.4,1,26.806810,-80.273831,25.50,1.39,12,2,1.05,4.10,98,,,,
130477,2026-07-02T06:39:08Z,94.52,-36.91,-0.08,74.0,45.6,1,26.806797,-80.273829,20.20,2.39,12,2,1.10,4.13,98,,,,
135483,2026-07-02T06:39:13Z,94.47,-36.68,0.12,74.0,45.0,1,26.806789,-80.273790,17.70,0.57,12,1,1.05,4.13,98,,,,
140494,2026-07-02T06:39:18Z,93.27,-38.11,-0.10,73.8,44.9,1,26.806790,-80.273783,13.30,0.24,12,1,1.10,4.14,98,,,,
145496,2026-07-02T06:39:23Z,93.20,-38.12,0.00,73.8,44.8,1,26.806797,-80.273763,11.80,1.33,12,2,1.23,4.12,98,,,,
150496,2026-07-02T06:39:28Z,93.24,-38.13,-0.02,73.9,44.7,1,26.806805,-80.273747,12.40,0.30,12,2,1.15,0.00,0,,,,
155496,2026-07-02T06:39:33Z,93.25,-38.10,-0.00,74.0,44.7,1,26.806811,-80.273741,12.00,0.09,12,1,1.05,4.08,98,,,,
160496,2026-07-02T06:39:38Z,93.30,-38.02,-0.00,74.0,44.5,1,26.806813,-80.273737,11.60,0.20,12,1,1.24,4.13,98,,,,
165496,2026-07-02T06:39:43Z,93.26,-38.08,-0.01,74.0,44.2,1,26.806815,-80.273730,11.80,0.09,12,1,1.05,4.12,98,,,,
170496,2026-07-02T06:39:48Z,93.28,-38.07,-0.00,74.0,44.3,1,26.806815,-80.273727,12.10,0.26,12,1,0.92,4.13,98,,,,
175496,2026-07-02T06:39:53Z,93.29,-38.05,0.00,74.1,44.6,1,26.806813,-80.273724,13.30,0.24,12,2,0.94,0.00,0,,,,
180496,2026-07-02T06:39:58Z,93.31,-38.00,0.01,74.1,44.8,1,26.806811,-80.273723,14.40,0.19,12,1,0.90,0.00,0,,,,
185498,2026-07-02T06:40:03Z,93.32,-38.01,0.00,74.2,44.8,1,26.806812,-80.273721,14.90,0.30,12,10,0.88,4.13,97,,,,
190498,2026-07-02T06:40:08Z,93.33,-37.94,0.01,74.4,44.5,1,26.806815,-80.273719,15.20,0.06,12,1,0.92,0.00,0,,,,
195498,2026-07-02T06:40:13Z,93.35,-38.01,0.01,74.4,44.5,1,26.806817,-80.273719,15.00,0.11,12,1,0.88,0.00,0,,,,
200498,2026-07-02T06:40:18Z,93.38,-37.91,0.01,74.4,44.3,1,26.806820,-80.273718,15.50,0.28,12,1,0.81,4.13,97,,,,
205498,2026-07-02T06:40:23Z,93.39,-37.95,-0.01,74.5,44.4,1,26.806820,-80.273717,15.90,0.13,12,2,0.84,4.13,97,,,,
210498,2026-07-02T06:40:28Z,93.36,-38.00,-0.01,74.6,44.4,1,26.806818,-80.273715,16.10,0.09,12,2,0.87,4.09,97,,,,
215498,2026-07-02T06:40:33Z,93.42,-37.93,-0.00,74.6,44.2,1,26.806815,-80.273713,16.70,0.26,12,3,0.91,0.00,0,,,,
220498,2026-07-02T06:40:38Z,93.43,-37.93,-0.00,74.6,44.2,1,26.806813,-80.273713,17.40,0.11,12,2,0.91,0.00,0,,,,
225498,2026-07-02T06:40:43Z,93.42,-37.91,-0.00,74.7,44.2,1,26.806810,-80.273712,17.90,0.31,12,2,0.86,0.00,0,,,,
230498,2026-07-02T06:40:48Z,93.33,-38.02,-0.02,74.7,44.2,1,26.806809,-80.273711,18.20,0.13,12,2,0.84,4.13,97,,,,
235498,2026-07-02T06:40:53Z,93.30,-38.02,-0.01,74.7,44.2,1,26.806808,-80.273709,18.20,0.17,12,3,0.84,0.00,0,,,,
240498,2026-07-02T06:40:58Z,93.30,-38.02,0.00,74.8,44.2,1,26.806804,-80.273708,18.30,0.22,12,3,0.78,4.09,97,,,,
245498,2026-07-02T06:41:03Z,93.30,-38.04,0.01,74.8,43.9,1,26.806802,-80.273704,18.30,0.22,12,3,0.78,0.00,0,,,,
250498,2026-07-02T06:41:08Z,93.30,-38.04,-0.01,74.8,44.1,1,26.806798,-80.273703,18.10,0.22,12,3,0.87,4.13,97,,,,
255498,2026-07-02T06:41:13Z,93.26,-38.05,-0.01,74.8,44.0,1,26.806794,-80.273703,18.00,0.13,12,3,0.87,0.00,0,,,,
260498,2026-07-02T06:41:18Z,93.21,-38.12,-0.01,74.8,44.1,1,26.806795,-80.273700,17.90,0.31,12,3,0.87,4.12,97,,,,
265498,2026-07-02T06:41:23Z,93.22,-38.13,-0.01,74.9,43.9,1,26.806795,-80.273697,17.90,0.13,12,2,0.87,4.09,97,,,,
270500,2026-07-02T06:41:28Z,93.23,-38.11,-0.00,75.0,43.8,1,26.806790,-80.273701,17.30,0.26,12,3,0.76,0.00,0,,,,
275500,2026-07-02T06:41:33Z,93.17,-38.14,0.00,75.1,43.6,1,26.806784,-80.273708,16.50,0.22,12,3,0.80,4.13,97,,,,
280500,2026-07-02T06:41:38Z,93.28,-38.03,0.02,75.1,43.5,1,26.806781,-80.273712,16.20,0.20,12,3,0.80,4.13,97,,,,
285500,2026-07-02T06:41:43Z,93.22,-38.08,0.01,75.1,43.5,1,26.806781,-80.273713,16.10,0.37,12,3,0.78,4.13,97,,,,
290500,2026-07-02T06:41:48Z,93.26,-38.10,0.01,75.2,43.5,1,26.806782,-80.273716,16.00,0.20,12,3,0.82,0.00,0,,,,
295500,2026-07-02T06:41:53Z,93.22,-38.14,-0.00,75.2,43.5,1,26.806780,-80.273719,15.50,0.09,12,3,0.78,0.00,0,,,,
300500,2026-07-02T06:41:58Z,93.24,-38.12,0.00,75.3,43.3,1,26.806778,-80.273720,14.70,0.13,12,3,0.78,4.12,97,,,,
305500,2026-07-02T06:42:03Z,93.21,-38.14,-0.00,75.3,43.2,1,26.806775,-80.273720,14.10,0.22,12,3,0.80,0.00,0,,,,
310500,2026-07-02T06:42:08Z,93.17,-38.18,-0.00,75.3,43.3,1,26.806772,-80.273722,13.60,0.06,12,3,0.80,0.00,0,,,,
315500,2026-07-02T06:42:13Z,93.18,-38.16,-0.00,75.4,43.3,1,26.806772,-80.273724,13.50,0.13,12,3,0.74,0.00,0,,,,
320500,2026-07-02T06:42:18Z,93.04,-38.21,0.01,75.4,43.2,1,26.806771,-80.273725,13.30,0.24,12,3,0.74,0.00,0,,,,
325500,2026-07-02T06:42:23Z,93.17,-38.18,0.00,75.4,43.2,1,26.806773,-80.273723,12.70,0.06,12,4,0.67,0.00,0,,,,
330502,2026-07-02T06:42:28Z,93.18,-38.13,0.01,75.5,43.3,1,26.806775,-80.273723,12.80,0.02,12,4,0.86,4.11,97,,,,
335504,2026-07-02T06:42:33Z,93.13,-38.20,0.00,75.5,43.2,1,26.806777,-80.273723,12.90,0.11,12,4,0.66,4.12,97,,,,
340504,2026-07-02T06:42:38Z,93.09,-38.23,-0.01,75.5,42.9,1,26.806779,-80.273721,12.50,0.04,12,4,0.67,0.00,0,,,,
345506,2026-07-02T06:42:43Z,93.06,-38.24,-0.01,75.6,43.2,1,26.806780,-80.273722,12.80,0.33,12,4,0.76,0.00,0,,,,
350506,2026-07-02T06:42:48Z,93.20,-38.16,-0.02,75.5,43.0,1,26.806782,-80.273724,13.10,0.13,12,4,0.66,0.00,0,,,,
355506,2026-07-02T06:42:53Z,93.02,-38.34,-0.01,75.6,43.0,1,26.806784,-80.273724,13.60,0.13,12,4,0.68,0.00,0,,,,
360506,2026-07-02T06:42:58Z,93.00,-38.37,-0.01,75.6,42.9,1,26.806787,-80.273724,13.60,0.06,12,10,0.68,0.00,0,,,,
365506,2026-07-02T06:43:03Z,92.91,-38.42,0.00,75.7,42.8,1,26.806788,-80.273724,13.70,0.15,12,4,0.68,0.00,0,,,,
370507,2026-07-02T06:43:08Z,92.80,-38.48,0.01,75.7,42.5,1,26.806789,-80.273724,13.50,0.09,12,4,0.74,0.00,0,,,,
375507,2026-07-02T06:43:13Z,93.56,-36.77,0.22,75.7,42.5,1,26.806789,-80.273723,13.70,0.09,12,4,0.66,0.00,0,,,,
380507,2026-07-02T06:43:18Z,92.70,-38.66,-0.01,75.8,42.5,1,26.806788,-80.273724,14.20,0.13,12,4,0.68,0.00,0,,,,
385507,2026-07-02T06:43:23Z,92.67,-38.66,-0.01,75.8,42.5,1,26.806788,-80.273729,14.80,0.37,12,4,0.69,4.13,97,,,,
390509,2026-07-02T06:43:28Z,92.69,-38.63,0.01,75.9,42.5,1,26.806788,-80.273731,15.70,0.20,12,4,0.64,0.00,0,,,,
395510,2026-07-02T06:43:33Z,92.65,-38.68,-0.00,75.9,42.4,1,26.806787,-80.273733,16.30,0.04,12,4,0.66,0.00,0,,,,
400510,2026-07-02T06:43:38Z,92.61,-38.71,-0.01,75.9,42.5,1,26.806788,-80.273736,16.40,0.13,12,4,0.65,0.00,0,,,,
405510,2026-07-02T06:43:43Z,92.61,-38.71,-0.00,75.9,42.5,1,26.806790,-80.273740,16.10,0.31,12,4,0.65,0.00,0,,,,
410512,2026-07-02T06:43:48Z,92.57,-38.68,0.01,75.9,42.5,1,26.806791,-80.273741,16.00,0.19,12,4,0.70,0.00,0,,,,
415512,2026-07-02T06:43:53Z,92.49,-38.85,-0.00,75.9,42.5,1,26.806790,-80.273739,16.50,0.15,12,4,0.72,0.00,0,,,,
420513,2026-07-02T06:43:58Z,92.49,-38.87,-0.00,75.9,42.4,1,26.806790,-80.273737,16.70,0.07,12,4,0.69,0.00,0,,,,
425515,2026-07-02T06:44:03Z,92.44,-38.88,-0.01,76.0,42.2,1,26.806791,-80.273734,16.80,0.13,12,4,0.69,0.00,0,,,,
430517,2026-07-02T06:44:08Z,90.70,-45.78,-0.45,76.0,42.3,1,26.806791,-80.273732,16.70,0.28,12,4,0.70,0.00,0,,,,
435517,2026-07-02T06:44:13Z,92.54,-38.80,-0.01,76.0,42.3,1,26.806794,-80.273733,16.50,0.26,12,4,0.68,0.00,0,,,,
440518,2026-07-02T06:44:18Z,92.62,-38.75,0.00,76.0,42.2,1,26.806795,-80.273735,16.10,0.11,12,4,0.67,0.00,0,,,,
445518,2026-07-02T06:44:23Z,92.53,-38.78,0.01,76.0,42.1,1,26.806796,-80.273735,15.90,0.11,12,5,0.72,4.11,97,,,,
450518,2026-07-02T06:44:28Z,92.51,-38.82,0.00,76.0,42.0,1,26.806795,-80.273734,15.70,0.11,12,6,0.70,0.00,0,,,,
455518,2026-07-02T06:44:33Z,92.41,-38.93,0.01,76.1,42.1,1,26.806797,-80.273733,15.70,0.07,12,5,0.68,0.00,0,,,,
460518,2026-07-02T06:44:38Z,92.34,-39.00,-0.03,76.1,42.1,1,26.806798,-80.273732,15.40,0.06,12,5,0.72,0.00,0,,,,
465518,2026-07-02T06:44:43Z,93.08,-38.82,0.01,76.1,42.1,1,26.806798,-80.273734,15.30,0.15,12,7,0.69,0.00,0,,,,
470518,2026-07-02T06:44:48Z,92.17,-39.17,-0.01,76.0,42.0,1,26.806799,-80.273737,15.60,0.33,12,4,0.64,0.00,0,,,,
475519,2026-07-02T06:44:53Z,92.12,-39.20,0.02,76.1,42.5,1,26.806800,-80.273732,15.70,0.13,12,4,0.69,4.11,96,,,,
480519,2026-07-02T06:44:58Z,92.18,-39.13,0.01,76.1,42.1,1,26.806802,-80.273726,16.10,0.31,12,4,0.73,4.12,96,,,,
485527,2026-07-02T06:45:03Z,92.13,-39.20,0.02,76.2,42.0,1,26.806803,-80.273723,16.70,0.11,12,4,0.70,4.08,96,,,,
490527,2026-07-02T06:45:08Z,92.12,-39.18,0.01,76.2,42.0,1,26.806804,-80.273721,16.90,0.35,12,4,0.67,0.00,0,,,,
495527,2026-07-02T06:45:13Z,92.06,-39.29,-0.01,76.2,42.0,1,26.806805,-80.273720,17.10,0.11,12,4,0.65,0.00,0,,,,
500528,2026-07-02T06:45:18Z,92.07,-39.17,0.02,76.2,42.1,1,26.806805,-80.273718,17.50,0.98,12,4,0.68,0.00,0,,,,
505528,2026-07-02T06:45:23Z,93.07,-38.41,-0.06,76.3,42.9,1,26.806805,-80.273723,17.40,0.19,12,4,0.88,0.00,0,,,,
510533,2026-07-02T06:45:28Z,92.86,-38.44,-0.01,76.3,42.5,1,26.806801,-80.273726,18.10,0.63,12,11,0.71,0.00,0,,,,
515535,2026-07-02T06:45:33Z,92.64,-39.46,-0.07,76.3,42.8,1,26.806797,-80.273732,18.30,0.35,12,4,0.64,0.00,0,,,,
520535,2026-07-02T06:45:38Z,91.76,-39.62,-0.02,76.2,42.2,1,26.806792,-80.273725,16.50,0.22,12,5,0.67,0.00,0,,,,
525535,2026-07-02T06:45:43Z,91.72,-39.63,-0.01,76.3,42.0,1,26.806786,-80.273715,13.30,0.06,12,4,0.63,0.00,0,,,,
530538,2026-07-02T06:45:48Z,91.70,-39.63,0.00,76.3,42.0,1,26.806784,-80.273713,12.60,0.28,12,5,0.70,0.00,0,,,,
535538,2026-07-02T06:45:53Z,91.62,-39.71,-0.00,76.3,42.0,1,26.806782,-80.273708,11.90,0.37,12,9,0.64,0.00,0,,,,
540538,2026-07-02T06:45:58Z,91.48,-39.84,-0.01,76.2,42.0,1,26.806781,-80.273705,11.30,0.20,12,9,0.72,0.00,0,,,,
545538,2026-07-02T06:46:03Z,91.48,-39.87,-0.01,76.2,42.1,1,26.806781,-80.273704,11.10,0.06,12,5,0.69,0.00,0,,,,
550538,2026-07-02T06:46:08Z,91.38,-39.97,-0.01,76.2,42.1,1,26.806782,-80.273705,11.40,0.13,12,4,0.68,0.00,0,,,,
555538,2026-07-02T06:46:13Z,91.32,-39.99,0.01,76.2,42.1,1,26.806784,-80.273705,11.80,0.22,12,4,0.72,0.00,0,,,,
560539,2026-07-02T06:46:18Z,91.22,-40.12,-0.00,76.2,42.2,1,26.806784,-80.273704,11.90,0.13,12,11,0.72,0.00,0,,,,
565540,2026-07-02T06:46:23Z,91.14,-40.17,-0.00,76.2,42.2,1,26.806785,-80.273703,11.80,0.07,12,10,0.70,0.00,0,,,,
570540,2026-07-02T06:46:28Z,91.06,-40.29,-0.02,76.1,42.3,1,26.806785,-80.273701,11.70,0.20,12,10,0.66,0.00,0,,,,
575541,2026-07-02T06:46:33Z,91.03,-40.32,0.00,76.1,42.4,1,26.806785,-80.273699,11.50,0.28,12,10,0.69,0.00,0,,,,
580541,2026-07-02T06:46:38Z,90.94,-40.36,0.00,76.2,42.3,1,26.806786,-80.273697,11.50,0.13,12,10,0.69,0.00,0,,,,
585541,2026-07-02T06:46:43Z,90.84,-40.52,-0.01,76.1,42.4,1,26.806787,-80.273692,11.10,0.15,12,5,0.69,0.00,0,,,,
590543,2026-07-02T06:46:48Z,90.79,-40.60,-0.00,76.0,42.4,1,26.806787,-80.273690,10.60,0.31,12,5,0.69,0.00,0,,,,
595543,2026-07-02T06:46:53Z,90.65,-40.66,-0.00,76.0,42.5,1,26.806785,-80.273687,9.10,0.17,12,5,0.63,0.00,0,,,,
600543,2026-07-02T06:46:58Z,90.64,-40.70,0.00,76.0,42.6,1,26.806783,-80.273683,6.70,0.26,12,5,0.63,0.00,0,,,,
605543,2026-07-02T06:47:03Z,90.56,-40.81,-0.01,76.0,42.6,1,26.806782,-80.273679,4.90,0.13,12,5,0.63,0.00,0,,,,
610545,2026-07-02T06:47:08Z,90.56,-40.80,0.00,76.0,42.6,1,26.806783,-80.273679,5.60,0.04,12,5,0.71,0.00,0,,,,
615545,2026-07-02T06:47:13Z,90.44,-40.92,-0.00,76.0,42.8,1,26.806786,-80.273681,7.20,0.11,12,5,0.73,0.00,0,,,,
620545,2026-07-02T06:47:18Z,90.40,-40.95,-0.00,76.0,42.8,1,26.806787,-80.273680,7.30,0.30,12,5,0.65,0.00,0,,,,
625546,2026-07-02T06:47:23Z,90.29,-41.05,-0.00,75.9,42.8,1,26.806784,-80.273678,6.70,0.24,12,4,0.68,0.00,0,,,,
630546,2026-07-02T06:47:28Z,90.19,-41.19,-0.02,76.0,42.8,1,26.806783,-80.273678,6.70,0.09,12,4,0.67,0.00,0,,,,
635546,2026-07-02T06:47:33Z,90.17,-41.16,0.01,75.9,42.9,1,26.806782,-80.273676,6.70,0.28,12,11,0.69,0.00,0,,,,
640546,2026-07-02T06:47:38Z,90.09,-41.23,0.00,75.9,42.9,1,26.806783,-80.273675,6.80,0.17,12,12,0.69,0.00,0,,,,
645547,2026-07-02T06:47:43Z,90.01,-41.32,-0.01,75.9,42.9,1,26.806784,-80.273673,7.10,0.07,12,4,0.68,0.00,0,,,,
650547,2026-07-02T06:47:48Z,90.00,-41.35,-0.01,75.9,43.0,1,26.806784,-80.273674,8.10,0.09,12,12,0.61,0.00,0,,,,
655547,2026-07-02T06:47:53Z,89.92,-41.42,-0.00,75.9,43.0,1,26.806784,-80.273674,9.40,0.22,12,12,0.63,0.00,0,,,,
660547,2026-07-02T06:47:58Z,89.87,-41.49,-0.01,75.9,43.1,1,26.806784,-80.273674,10.40,0.13,12,5,0.67,0.00,0,,,,
665549,2026-07-02T06:48:03Z,89.81,-41.55,-0.03,75.8,43.2,1,26.806783,-80.273673,10.80,0.17,12,5,0.67,4.08,96,,,,
670550,2026-07-02T06:48:08Z,89.83,-41.51,-0.00,75.9,43.2,1,26.806781,-80.273671,10.20,0.37,12,5,0.70,4.13,96,,,,
675557,2026-07-02T06:48:13Z,89.78,-41.54,0.00,75.8,43.2,1,26.806779,-80.273668,8.80,0.26,12,12,0.76,4.12,96,,,,
680559,2026-07-02T06:48:18Z,89.77,-41.56,0.01,75.8,43.3,1,26.806778,-80.273668,8.10,0.22,12,5,0.65,0.00,0,,,,
685559,2026-07-02T06:48:23Z,89.67,-41.65,-0.02,75.8,43.3,1,26.806777,-80.273668,8.30,0.17,12,5,0.70,0.00,0,,,,
690568,2026-07-02T06:48:28Z,89.69,-41.64,-0.00,75.8,43.4,1,26.806777,-80.273669,8.40,0.31,12,7,0.70,0.00,0,,,,
695572,2026-07-02T06:48:33Z,89.66,-41.65,-0.00,75.7,43.4,1,26.806777,-80.273671,9.60,0.28,12,5,0.72,0.00,0,,,,
700579,2026-07-02T06:48:38Z,89.66,-41.67,0.01,75.7,43.4,1,26.806778,-80.273674,10.70,0.28,12,12,0.68,0.00,0,,,,
705579,2026-07-02T06:48:43Z,90.34,-40.74,0.23,75.6,43.5,1,26.806780,-80.273678,11.40,0.83,12,5,0.63,0.00,0,,,,
5305,2026-07-02T06:48:58Z,90.09,-41.20,0.00,75.8,43.8,1,26.806771,-80.273799,25.40,0.20,12,5,0.74,0.00,0,,,,
10307,2026-07-02T06:49:03Z,90.18,-41.15,-0.01,75.9,44.2,1,26.806778,-80.273773,20.90,0.70,12,4,0.60,0.00,0,,,,
15347,2026-07-02T06:49:08Z,90.01,-41.32,0.01,75.9,45.8,1,26.806784,-80.273748,15.60,0.19,12,4,0.65,0.00,0,,,,
20347,2026-07-02T06:49:13Z,90.04,-41.29,-0.00,76.0,46.3,1,26.806793,-80.273740,14.70,0.70,12,5,0.69,0.00,0,,,,
25351,2026-07-02T06:49:18Z,89.44,-41.88,-0.00,76.0,44.7,1,26.806798,-80.273734,12.70,0.04,12,11,0.67,0.00,0,,,,
30354,2026-07-02T06:49:23Z,89.46,-41.86,-0.00,76.1,43.8,1,26.806798,-80.273728,10.40,0.41,12,4,0.66,0.00,0,,,,
35354,2026-07-02T06:49:28Z,89.39,-41.97,-0.03,76.1,43.7,1,26.806797,-80.273725,9.20,0.28,12,4,0.70,0.00,0,,,,
40355,2026-07-02T06:49:33Z,89.46,-41.86,0.02,76.1,43.6,1,26.806798,-80.273723,8.10,0.39,12,4,0.70,0.00,0,,,,
45391,2026-07-02T06:49:38Z,89.50,-41.86,-0.00,76.2,43.5,1,26.806795,-80.273713,8.90,0.17,12,4,0.65,4.09,96,,,,
50391,2026-07-02T06:49:43Z,89.52,-41.78,0.01,76.2,43.4,1,26.806794,-80.273713,8.70,0.33,12,8,0.65,4.11,96,,,,
55414,2026-07-02T06:49:48Z,89.49,-41.86,0.01,76.2,43.4,1,26.806794,-80.273715,9.00,0.15,12,4,0.64,0.00,0,,,,
60414,2026-07-02T06:49:53Z,89.52,-41.81,-0.01,76.2,43.4,1,26.806793,-80.273718,9.60,0.24,12,4,0.64,0.00,0,,,,
65416,2026-07-02T06:49:58Z,89.49,-41.86,0.00,76.2,43.4,1,26.806793,-80.273718,9.80,0.17,12,4,0.63,0.00,0,,,,
70417,2026-07-02T06:50:03Z,89.48,-41.84,-0.01,76.2,43.4,1,26.806791,-80.273715,10.80,0.13,12,4,0.67,0.00,0,,,,
75417,2026-07-02T06:50:08Z,89.54,-41.80,0.00,76.2,43.4,1,26.806791,-80.273712,12.20,0.30,12,4,0.66,0.00,0,,,,
80424,2026-07-02T06:50:13Z,89.50,-41.84,-0.01,76.3,43.5,1,26.806790,-80.273711,13.20,0.24,12,4,0.69,0.00,0,,,,
85433,2026-07-02T06:50:18Z,89.50,-41.90,-0.12,76.2,43.6,1,26.806792,-80.273707,13.10,0.26,12,4,0.60,0.00,0,,,,
90434,2026-07-02T06:50:23Z,89.50,-41.89,0.00,76.2,43.5,1,26.806786,-80.273704,13.20,0.20,12,4,0.71,0.00,0,,,,
95434,2026-07-02T06:50:28Z,89.51,-41.85,-0.00,76.3,43.5,1,26.806785,-80.273696,12.90,0.22,12,11,0.60,0.00,0,,,,
100434,2026-07-02T06:50:33Z,89.49,-41.86,-0.00,76.3,43.5,1,26.806784,-80.273691,12.90,0.17,12,10,0.60,0.00,0,,,,
105434,2026-07-02T06:50:38Z,89.56,-41.75,0.02,76.3,43.5,1,26.806785,-80.273689,12.50,0.30,12,8,0.62,0.00,0,,,,
110435,2026-07-02T06:50:43Z,89.50,-41.81,-0.01,76.3,43.5,1,26.806785,-80.273688,12.60,0.20,12,10,0.66,0.00,0,,,,
115462,2026-07-02T06:50:48Z,89.51,-41.83,0.01,76.3,43.6,1,26.806787,-80.273689,12.20,0.17,12,10,0.62,0.00,0,,,,
120463,2026-07-02T06:50:53Z,89.51,-41.84,0.01,76.2,43.6,1,26.806787,-80.273686,12.10,0.11,12,10,0.62,0.00,0,,,,
125464,2026-07-02T06:50:58Z,89.53,-41.79,-0.00,76.2,43.6,1,26.806786,-80.273684,12.40,0.06,12,12,0.63,0.00,0,,,,
130476,2026-07-02T06:51:03Z,89.59,-41.72,0.00,76.3,43.6,1,26.806787,-80.273684,11.80,0.13,12,5,0.65,0.00,0,,,,
135476,2026-07-02T06:51:08Z,89.61,-41.70,0.00,76.3,43.6,1,26.806789,-80.273686,11.80,0.37,12,5,0.69,0.00,0,,,,
140476,2026-07-02T06:51:13Z,89.66,-41.66,0.00,76.2,43.6,1,26.806790,-80.273689,12.30,0.11,12,5,0.65,0.00,0,,,,
145476,2026-07-02T06:51:18Z,89.69,-41.64,0.00,76.3,43.6,1,26.806792,-80.273693,12.50,0.20,12,5,0.67,0.00,0,,,,
150476,2026-07-02T06:51:23Z,89.72,-41.60,0.01,76.2,43.7,1,26.806794,-80.273699,12.30,0.11,12,11,0.67,0.00,0,,,,
155478,2026-07-02T06:51:28Z,89.75,-41.55,0.01,76.3,43.7,1,26.806796,-80.273703,12.00,0.06,12,12,0.67,0.00,0,,,,
160487,2026-07-02T06:51:33Z,89.76,-41.54,0.01,76.3,43.8,1,26.806796,-80.273706,11.70,0.26,12,8,0.64,0.00,0,,,,
165487,2026-07-02T06:51:38Z,89.80,-41.56,-0.01,76.3,43.8,1,26.806797,-80.273706,11.70,0.06,12,8,0.64,0.00,0,,,,
170534,2026-07-02T06:51:43Z,89.79,-41.53,0.02,76.2,43.8,1,26.806797,-80.273705,11.90,0.35,12,4,0.62,0.00,96,,,,
175534,2026-07-02T06:51:48Z,89.85,-41.51,0.02,76.2,43.8,1,26.806797,-80.273703,12.00,0.11,12,4,0.64,0.00,0,,,,
180536,2026-07-02T06:51:53Z,89.84,-41.46,0.00,76.2,43.8,1,26.806797,-80.273702,11.70,0.07,12,4,0.64,0.00,0,,,,
185538,2026-07-02T06:51:58Z,89.85,-41.49,-0.01,76.2,43.9,1,26.806797,-80.273703,11.50,0.24,12,4,0.66,0.00,0,,,,
190538,2026-07-02T06:52:03Z,89.86,-41.45,-0.00,76.2,43.9,1,26.806799,-80.273703,11.20,0.11,12,4,0.69,0.00,0,,,,
195538,2026-07-02T06:52:08Z,89.89,-41.47,-0.00,76.2,43.9,1,26.806800,-80.273705,12.40,0.31,12,5,0.76,0.00,0,,,,
200538,2026-07-02T06:52:13Z,89.86,-41.42,0.01,76.2,44.1,1,26.806800,-80.273707,13.00,0.28,12,5,0.69,0.00,0,,,,
205538,2026-07-02T06:52:18Z,89.92,-41.38,0.01,76.2,44.0,1,26.806801,-80.273708,12.60,0.15,12,5,0.66,0.00,0,,,,
210538,2026-07-02T06:52:23Z,89.94,-41.41,-0.00,76.2,43.9,1,26.806801,-80.273707,13.10,0.13,12,5,0.70,0.00,0,,,,
215540,2026-07-02T06:52:28Z,89.93,-41.40,0.00,76.3,44.0,1,26.806799,-80.273706,14.10,0.20,12,6,0.80,0.00,0,,,,
220540,2026-07-02T06:52:33Z,90.64,-41.38,-0.13,76.3,44.1,1,26.806803,-80.273707,13.60,4.11,12,5,0.71,0.00,0,,,,
225540,2026-07-02T06:52:38Z,90.72,-40.49,0.11,76.2,44.1,1,26.806802,-80.273710,14.20,0.56,12,5,0.62,0.00,0,,,,
230540,2026-07-02T06:52:43Z,90.39,-41.24,-0.13,76.3,45.3,1,26.806800,-80.273711,13.70,5.19,12,5,0.60,0.00,0,,,,
235540,2026-07-02T06:52:48Z,90.09,-41.27,-0.12,76.3,44.4,1,26.806800,-80.273708,16.10,0.11,12,11,0.60,0.00,0,,,,
240541,2026-07-02T06:52:53Z,90.05,-41.30,0.00,76.3,44.1,1,26.806806,-80.273705,15.20,0.20,12,5,0.70,0.00,0,,,,
245542,2026-07-02T06:52:58Z,90.07,-41.25,0.00,76.3,44.1,1,26.806804,-80.273702,14.80,0.39,12,11,0.72,4.11,95,,,,
250542,2026-07-02T06:53:03Z,90.07,-41.26,0.00,76.3,44.0,1,26.806803,-80.273699,14.00,0.20,12,5,0.67,0.00,0,,,,
255542,2026-07-02T06:53:08Z,90.10,-41.24,-0.01,76.4,44.1,1,26.806805,-80.273702,12.60,0.39,12,5,0.67,0.00,0,,,,
260544,2026-07-02T06:53:13Z,90.11,-41.21,0.01,76.4,44.0,1,26.806808,-80.273707,11.60,0.11,12,9,0.67,0.00,0,,,,
265544,2026-07-02T06:53:18Z,90.07,-41.25,0.00,76.4,44.1,1,26.806811,-80.273711,10.90,0.06,12,10,0.68,0.00,0,,,,
270544,2026-07-02T06:53:23Z,90.09,-41.27,0.00,76.4,44.1,1,26.806813,-80.273715,10.40,0.07,12,10,0.79,0.00,0,,,,
275544,2026-07-02T06:53:28Z,90.09,-41.27,0.01,76.4,44.0,1,26.806816,-80.273720,9.60,0.20,12,10,0.75,0.00,0,,,,
280544,2026-07-02T06:53:33Z,90.03,-41.28,-0.01,76.5,44.0,1,26.806817,-80.273723,9.40,0.31,12,9,0.79,0.00,0,,,,
285544,2026-07-02T06:53:38Z,90.06,-41.30,-0.00,76.4,44.1,1,26.806815,-80.273723,9.40,0.19,12,10,0.71,0.00,0,,,,
290544,2026-07-02T06:53:43Z,90.09,-41.24,-0.00,76.4,44.1,1,26.806816,-80.273728,8.50,0.20,12,10,0.70,0.00,0,,,,
295544,2026-07-02T06:53:48Z,90.05,-41.28,-0.00,76.4,44.1,1,26.806817,-80.273735,8.00,0.39,12,10,0.73,0.00,0,,,,
300544,2026-07-02T06:53:53Z,90.02,-41.32,0.01,76.4,44.1,1,26.806816,-80.273741,7.60,0.13,12,10,0.69,0.00,0,,,,
305544,2026-07-02T06:53:58Z,89.96,-41.42,-0.00,76.4,44.1,1,26.806815,-80.273740,7.40,0.17,12,10,0.70,0.00,0,,,,
310544,2026-07-02T06:54:03Z,89.95,-41.40,0.00,76.4,44.2,1,26.806813,-80.273742,7.00,0.46,12,3,0.72,0.00,0,,,,
315544,2026-07-02T06:54:08Z,89.92,-41.40,-0.00,76.4,44.1,1,26.806811,-80.273746,6.60,0.43,12,10,0.69,0.00,0,,,,
320544,2026-07-02T06:54:13Z,89.88,-41.44,-0.00,76.4,44.2,1,26.806808,-80.273742,6.30,0.09,12,10,0.69,0.00,0,,,,
325544,2026-07-02T06:54:18Z,89.90,-41.42,0.00,76.4,44.2,1,26.806807,-80.273742,6.50,0.17,12,3,0.67,0.00,0,,,,
330546,2026-07-02T06:54:23Z,89.87,-41.48,-0.00,76.4,44.3,1,26.806806,-80.273740,6.30,0.31,12,3,0.81,0.00,0,,,,
335546,2026-07-02T06:54:28Z,89.87,-41.44,-0.00,76.4,44.2,1,26.806807,-80.273735,6.40,0.48,12,3,0.73,0.00,0,,,,
340546,2026-07-02T06:54:33Z,89.81,-41.51,-0.01,76.4,44.3,1,26.806808,-80.273733,6.50,0.11,12,3,0.72,0.00,0,,,,
345546,2026-07-02T06:54:38Z,89.80,-41.58,-0.01,76.4,44.2,1,26.806811,-80.273731,7.30,0.07,12,3,0.69,0.00,0,,,,
350546,2026-07-02T06:54:43Z,89.76,-41.58,-0.01,76.4,44.3,1,26.806812,-80.273727,7.90,0.19,12,3,0.76,0.00,0,,,,
355546,2026-07-02T06:54:48Z,89.76,-41.60,0.00,76.4,44.3,1,26.806811,-80.273721,8.10,0.43,12,11,0.76,0.00,0,,,,
360546,2026-07-02T06:54:53Z,89.73,-41.62,-0.00,76.4,44.3,1,26.806809,-80.273715,7.70,0.04,12,3,0.76,0.00,0,,,,
365546,2026-07-02T06:54:58Z,89.74,-41.61,-0.00,76.3,44.3,1,26.806807,-80.273710,7.50,0.30,12,3,0.85,0.00,0,,,,
370546,2026-07-02T06:55:03Z,89.68,-41.64,0.00,76.4,44.3,1,26.806805,-80.273706,7.60,0.28,12,12,0.78,0.00,0,,,,
375546,2026-07-02T06:55:08Z,89.65,-41.63,-0.01,76.3,44.3,1,26.806800,-80.273701,7.20,0.20,12,12,0.86,0.00,0,,,,
380546,2026-07-02T06:55:13Z,89.67,-41.67,0.01,76.3,44.4,1,26.806795,-80.273696,7.20,0.19,12,12,0.86,0.00,0,,,,
385546,2026-07-02T06:55:18Z,89.64,-41.68,-0.01,76.4,44.4,1,26.806793,-80.273690,7.70,0.15,12,3,1.06,0.00,0,,,,
390546,2026-07-02T06:55:23Z,89.62,-41.71,-0.01,76.4,44.5,1,26.806792,-80.273689,8.90,0.48,12,12,0.87,0.00,0,,,,
395546,2026-07-02T06:55:28Z,89.56,-41.75,0.00,76.4,44.5,1,26.806792,-80.273689,9.60,0.22,12,3,0.80,0.00,0,,,,
400546,2026-07-02T06:55:33Z,89.58,-41.72,0.02,76.4,44.5,1,26.806791,-80.273688,10.40,0.09,12,11,0.85,0.00,0,,,,
405548,2026-07-02T06:55:38Z,89.59,-41.74,-0.01,76.3,44.6,1,26.806791,-80.273689,11.00,0.43,12,11,0.80,0.00,0,,,,
410548,2026-07-02T06:55:43Z,89.55,-41.81,0.00,76.3,44.5,1,26.806790,-80.273691,11.10,0.44,12,3,0.81,0.00,0,,,,
415550,2026-07-02T06:55:48Z,89.54,-41.80,-0.00,76.3,44.6,1,26.806790,-80.273693,11.00,0.00,12,3,0.78,0.00,0,,,,
420551,2026-07-02T06:55:53Z,89.48,-41.84,-0.01,76.3,44.6,1,26.806790,-80.273697,10.50,0.15,12,3,0.82,0.00,0,,,,
425551,2026-07-02T06:55:58Z,89.47,-41.87,0.00,76.4,44.6,1,26.806790,-80.273701,9.60,0.17,12,3,0.84,0.00,0,,,,
430552,2026-07-02T06:56:03Z,89.42,-41.93,-0.01,76.3,44.6,1,26.806791,-80.273707,8.70,0.11,12,8,0.85,0.00,0,,,,
435554,2026-07-02T06:56:08Z,89.40,-41.91,-0.01,76.3,44.7,1,26.806796,-80.273709,8.50,0.09,12,11,0.71,0.00,0,,,,
440554,2026-07-02T06:56:13Z,89.39,-41.95,-0.00,76.3,44.7,1,26.806798,-80.273714,8.40,0.26,12,11,0.74,0.00,0,,,,
445554,2026-07-02T06:56:18Z,89.39,-41.96,0.01,76.3,44.7,1,26.806800,-80.273712,8.90,0.17,12,3,0.69,0.00,0,,,,
450554,2026-07-02T06:56:23Z,89.30,-42.06,-0.02,76.3,44.7,1,26.806801,-80.273711,9.90,0.15,12,3,0.70,0.00,0,,,,
455554,2026-07-02T06:56:28Z,89.29,-42.06,-0.02,76.3,44.8,1,26.806804,-80.273713,10.70,0.28,12,8,0.68,0.00,0,,,,
460554,2026-07-02T06:56:33Z,89.33,-42.00,-0.00,76.3,44.7,1,26.806806,-80.273716,10.70,0.22,12,8,0.69,0.00,0,,,,
465554,2026-07-02T06:56:38Z,89.26,-42.07,-0.00,76.3,44.7,1,26.806807,-80.273715,11.10,0.30,12,3,0.67,0.00,0,,,,
470554,2026-07-02T06:56:43Z,89.26,-42.08,-0.01,76.3,44.8,1,26.806810,-80.273717,11.10,0.09,12,3,0.69,0.00,0,,,,
475555,2026-07-02T06:56:48Z,89.22,-42.12,-0.01,76.3,44.8,1,26.806813,-80.273720,11.40,0.19,12,8,0.74,0.00,0,,,,
480555,2026-07-02T06:56:53Z,89.13,-42.23,-0.01,76.4,44.8,1,26.806816,-80.273724,12.00,0.46,12,3,0.69,0.00,0,,,,
485555,2026-07-02T06:56:58Z,89.17,-42.18,-0.00,76.4,44.8,1,26.806818,-80.273725,12.50,0.22,12,8,0.72,0.00,0,,,,
490555,2026-07-02T06:57:03Z,89.14,-42.17,0.00,76.4,44.8,1,26.806820,-80.273729,12.50,0.19,12,3,0.67,0.00,0,,,,
495555,2026-07-02T06:57:08Z,89.09,-42.24,-0.01,76.4,44.8,1,26.806819,-80.273730,12.00,0.20,12,8,0.77,0.00,0,,,,
500555,2026-07-02T06:57:13Z,89.04,-42.30,-0.00,76.4,44.8,1,26.806819,-80.273732,11.30,0.17,12,3,0.69,0.00,0,,,,
505555,2026-07-02T06:57:18Z,89.01,-42.33,0.00,76.4,44.8,1,26.806818,-80.273731,10.90,0.09,12,3,0.71,0.00,0,,,,
510555,2026-07-02T06:57:23Z,88.96,-42.34,0.00,76.4,44.8,1,26.806817,-80.273725,10.70,0.43,12,5,0.78,0.00,0,,,,
515555,2026-07-02T06:57:28Z,88.92,-42.44,-0.01,76.4,44.8,1,26.806817,-80.273723,10.20,0.43,12,5,0.77,0.00,0,,,,
520555,2026-07-02T06:57:33Z,88.91,-42.40,0.01,76.4,44.8,1,26.806817,-80.273719,9.90,0.31,12,6,0.83,0.00,0,,,,
525555,2026-07-02T06:57:38Z,88.90,-42.42,0.01,76.4,44.9,1,26.806821,-80.273718,10.60,0.22,12,7,0.83,0.00,0,,,,
530555,2026-07-02T06:57:43Z,88.82,-42.53,-0.00,76.4,44.9,1,26.806827,-80.273720,11.30,0.35,12,4,0.81,0.00,0,,,,
535555,2026-07-02T06:57:48Z,88.78,-42.55,-0.00,76.4,44.9,1,26.806832,-80.273724,11.70,0.24,12,7,0.81,0.00,0,,,,
540555,2026-07-02T06:57:53Z,88.77,-42.57,0.01,76.5,44.9,1,26.806836,-80.273725,12.10,0.35,12,4,0.81,0.00,0,,,,
545555,2026-07-02T06:57:58Z,88.69,-42.64,-0.00,76.5,44.9,1,26.806839,-80.273726,12.70,0.13,12,4,0.74,0.00,0,,,,
550555,2026-07-02T06:58:03Z,88.63,-42.74,-0.00,76.5,44.9,1,26.806840,-80.273724,12.70,0.28,12,3,0.78,0.00,0,,,,
555557,2026-07-02T06:58:08Z,88.60,-42.72,0.00,76.4,44.9,1,26.806837,-80.273719,12.50,0.31,12,8,0.79,0.00,0,,,,
560557,2026-07-02T06:58:13Z,88.52,-42.80,-0.00,76.5,44.9,1,26.806834,-80.273714,12.40,0.07,12,3,0.69,0.00,0,,,,
565557,2026-07-02T06:58:18Z,88.53,-42.81,0.00,76.5,45.0,1,26.806834,-80.273713,12.90,0.07,12,8,0.73,0.00,0,,,,
570557,2026-07-02T06:58:23Z,88.45,-42.88,-0.01,76.4,44.9,1,26.806837,-80.273713,13.70,0.11,12,8,0.76,0.00,0,,,,
575557,2026-07-02T06:58:28Z,88.47,-42.82,-0.00,76.4,45.0,1,26.806838,-80.273713,14.50,0.30,12,8,0.76,0.00,0,,,,
580561,2026-07-02T06:58:33Z,88.49,-42.86,0.00,76.4,45.0,1,26.806836,-80.273711,14.30,0.11,12,3,0.80,0.00,0,,,,
585561,2026-07-02T06:58:38Z,88.43,-42.91,-0.01,76.4,45.0,1,26.806834,-80.273711,14.00,0.30,12,8,0.82,0.00,0,,,,
590562,2026-07-02T06:58:43Z,88.44,-42.90,0.00,76.4,45.0,1,26.806834,-80.273712,13.50,0.17,12,8,0.82,0.00,0,,,,
595562,2026-07-02T06:58:48Z,88.41,-42.89,0.00,76.5,45.0,1,26.806832,-80.273712,12.80,0.04,12,3,0.75,0.00,0,,,,
600562,2026-07-02T06:58:53Z,88.41,-42.92,-0.00,76.4,45.0,1,26.806826,-80.273708,11.10,0.13,12,8,0.67,0.00,0,,,,
605562,2026-07-02T06:58:58Z,88.40,-42.93,0.00,76.4,45.0,1,26.806820,-80.273705,10.10,0.09,12,8,0.71,0.00,0,,,,
610562,2026-07-02T06:59:03Z,88.34,-43.00,-0.01,76.4,45.1,1,26.806816,-80.273702,9.70,0.26,12,3,0.74,0.00,0,,,,
615563,2026-07-02T06:59:08Z,88.38,-42.93,0.01,76.4,45.1,1,26.806813,-80.273701,8.90,0.30,12,8,0.67,0.00,0,,,,
620563,2026-07-02T06:59:13Z,88.38,-42.93,0.01,76.4,45.2,1,26.806813,-80.273699,8.50,0.33,12,8,0.76,0.00,0,,,,
625563,2026-07-02T06:59:18Z,88.34,-42.95,0.01,76.4,45.1,1,26.806815,-80.273698,8.10,0.22,12,8,0.91,0.00,0,,,,
630563,2026-07-02T06:59:23Z,88.41,-42.91,0.01,76.3,45.2,1,26.806814,-80.273700,7.90,0.02,12,4,0.78,0.00,0,,,,
635563,2026-07-02T06:59:28Z,88.36,-42.93,-0.01,76.4,45.2,1,26.806813,-80.273700,8.20,0.15,12,12,0.65,0.00,0,,,,
640568,2026-07-02T06:59:33Z,88.40,-42.94,-0.01,76.4,45.1,1,26.806812,-80.273699,8.30,0.13,12,4,0.60,0.00,0,,,,
645568,2026-07-02T06:59:38Z,88.39,-42.90,-0.00,76.4,45.2,1,26.806808,-80.273696,8.10,0.13,12,4,0.58,0.00,0,,,,
650568,2026-07-02T06:59:43Z,88.45,-42.86,0.00,76.4,45.3,1,26.806803,-80.273695,7.90,0.15,12,8,0.64,0.00,0,,,,
655568,2026-07-02T06:59:48Z,88.47,-42.85,0.00,76.4,45.3,1,26.806800,-80.273695,7.50,0.09,12,8,0.65,0.00,0,,,,
660568,2026-07-02T06:59:53Z,88.52,-42.82,0.00,76.4,45.3,1,26.806799,-80.273697,7.20,0.17,12,4,0.62,0.00,0,,,,
665568,2026-07-02T06:59:58Z,88.53,-42.78,0.01,76.4,45.3,1,26.806800,-80.273700,7.30,0.17,12,8,0.62,0.00,0,,,,
670572,2026-07-02T07:00:03Z,88.57,-42.75,0.00,76.4,45.3,1,26.806801,-80.273702,7.50,0.11,12,4,0.60,0.00,0,,,,
675572,2026-07-02T07:00:08Z,88.58,-42.70,-0.01,76.4,45.3,1,26.806800,-80.273703,8.00,0.04,12,8,0.64,0.00,0,,,,
680574,2026-07-02T07:00:13Z,88.62,-42.68,-0.00,76.4,45.3,1,26.806798,-80.273703,8.50,0.24,12,8,0.64,0.00,0,,,,
685576,2026-07-02T07:00:18Z,88.65,-42.71,-0.00,76.5,45.3,1,26.806794,-80.273701,8.20,0.09,12,4,0.60,0.00,0,,,,
690576,2026-07-02T07:00:23Z,88.66,-42.68,0.01,76.4,45.3,1,26.806793,-80.273703,7.60,0.09,12,4,0.66,0.00,0,,,,
695578,2026-07-02T07:00:28Z,88.64,-42.65,0.01,76.5,45.3,1,26.806792,-80.273699,7.30,0.35,12,4,0.65,0.00,0,,,,
700578,2026-07-02T07:00:33Z,88.68,-42.68,-0.00,76.5,45.3,1,26.806793,-80.273694,7.50,0.11,12,4,0.71,0.00,0,,,,
705580,2026-07-02T07:00:38Z,88.68,-42.64,0.01,76.5,45.3,1,26.806795,-80.273691,7.70,0.11,12,4,0.72,0.00,0,,,,
710580,2026-07-02T07:00:43Z,88.70,-42.66,-0.01,76.5,45.3,1,26.806798,-80.273690,7.30,0.19,12,4,0.62,0.00,0,,,,
715580,2026-07-02T07:00:48Z,88.72,-42.58,0.00,76.5,45.3,1,26.806797,-80.273682,8.30,0.48,12,4,0.70,0.00,0,,,,
720580,2026-07-02T07:00:53Z,88.76,-42.55,0.00,76.6,45.3,1,26.806797,-80.273679,10.50,0.24,12,5,0.72,0.00,0,,,,
725580,2026-07-02T07:00:58Z,88.69,-42.61,0.01,76.5,45.3,1,26.806795,-80.273683,11.10,0.15,12,7,0.70,0.00,0,,,,
730580,2026-07-02T07:01:03Z,88.73,-42.59,-0.00,76.5,45.3,1,26.806791,-80.273685,11.40,0.43,12,4,0.77,0.00,0,,,,
735580,2026-07-02T07:01:08Z,88.79,-42.55,0.00,76.5,45.4,1,26.806791,-80.273683,12.00,0.35,12,4,0.71,0.00,0,,,,
740582,2026-07-02T07:01:13Z,88.77,-42.56,0.01,76.5,45.4,1,26.806794,-80.273684,13.50,0.07,12,4,0.79,0.00,0,,,,
745582,2026-07-02T07:01:18Z,88.79,-42.54,0.01,76.5,45.4,1,26.806799,-80.273688,14.70,0.39,12,4,0.69,0.00,0,,,,
750586,2026-07-02T07:01:23Z,88.79,-42.53,0.00,76.5,45.4,1,26.806801,-80.273695,15.80,0.06,12,8,0.65,0.00,0,,,,
755590,2026-07-02T07:01:28Z,88.82,-42.49,0.01,76.6,45.4,1,26.806798,-80.273701,16.20,0.11,12,4,0.65,0.00,0,,,,
760601,2026-07-02T07:01:33Z,88.81,-42.50,0.01,76.5,45.4,1,26.806794,-80.273704,17.20,0.26,12,4,0.68,0.00,0,,,,
765601,2026-07-02T07:01:38Z,88.82,-42.53,0.00,76.6,45.4,1,26.806791,-80.273705,18.00,0.26,12,5,0.65,0.00,0,,,,
770601,2026-07-02T07:01:43Z,88.82,-42.50,0.01,76.6,45.4,1,26.806789,-80.273707,18.30,0.17,12,5,0.71,0.00,0,,,,
775601,2026-07-02T07:01:48Z,88.84,-42.50,0.01,76.6,45.4,1,26.806784,-80.273707,18.10,0.24,12,5,0.80,0.00,0,,,,
780602,2026-07-02T07:01:53Z,88.81,-42.53,0.01,76.5,45.4,1,26.806781,-80.273708,18.10,0.22,12,5,0.80,0.00,0,,,,
785603,2026-07-02T07:01:58Z,88.81,-42.54,0.01,76.6,45.5,1,26.806783,-80.273708,19.00,0.09,12,5,0.82,0.00,0,,,,
790603,2026-07-02T07:02:03Z,88.80,-42.53,0.00,76.5,45.5,1,26.806786,-80.273707,19.20,0.19,12,4,0.85,0.00,0,,,,
795603,2026-07-02T07:02:08Z,88.79,-42.56,-0.01,76.5,45.4,1,26.806793,-80.273711,19.50,0.24,12,4,0.81,0.00,0,,,,
800603,2026-07-02T07:02:13Z,88.77,-42.56,0.01,76.6,45.5,1,26.806796,-80.273709,19.40,0.24,12,4,0.76,0.00,0,,,,
805603,2026-07-02T07:02:18Z,88.77,-42.61,0.00,76.6,45.5,1,26.806795,-80.273708,19.50,0.09,12,4,0.76,0.00,0,,,,
810603,2026-07-02T07:02:23Z,88.78,-42.55,-0.00,76.6,45.4,1,26.806797,-80.273706,19.50,0.09,12,11,0.78,0.00,0,,,,
815603,2026-07-02T07:02:28Z,88.76,-42.52,0.01,76.6,45.5,1,26.806800,-80.273711,19.30,0.24,12,4,0.73,0.00,0,,,,
820603,2026-07-02T07:02:33Z,88.77,-42.59,0.00,76.6,45.5,1,26.806804,-80.273715,19.60,0.24,12,4,0.73,0.00,0,,,,
825603,2026-07-02T07:02:38Z,88.73,-42.58,0.00,76.5,45.5,1,26.806808,-80.273717,20.20,0.26,12,3,0.73,0.00,0,,,,
830603,2026-07-02T07:02:43Z,88.76,-42.60,0.00,76.6,45.6,1,26.806812,-80.273712,21.70,0.24,12,3,0.71,0.00,0,,,,
835603,2026-07-02T07:02:48Z,88.70,-42.67,-0.01,76.5,45.6,1,26.806816,-80.273703,22.90,0.22,12,4,0.78,0.00,0,,,,
840603,2026-07-02T07:02:53Z,88.70,-42.61,-0.00,76.5,45.5,1,26.806819,-80.273697,24.80,0.19,12,4,0.73,0.00,0,,,,
845603,2026-07-02T07:02:58Z,88.69,-42.64,0.00,76.6,45.5,1,26.806821,-80.273696,26.30,0.13,12,3,0.68,0.00,0,,,,
850603,2026-07-02T07:03:03Z,88.67,-42.66,-0.00,76.5,45.6,1,26.806821,-80.273697,27.60,0.22,12,3,0.79,0.00,0,,,,
855603,2026-07-02T07:03:08Z,88.66,-42.66,0.00,76.5,45.6,1,26.806821,-80.273698,28.40,0.28,12,3,0.76,0.00,0,,,,
860603,2026-07-02T07:03:13Z,88.68,-42.71,-0.00,76.6,45.6,1,26.806825,-80.273702,28.30,0.63,12,4,0.81,0.00,0,,,,
865603,2026-07-02T07:03:18Z,88.66,-42.69,-0.00,76.6,45.6,1,26.806826,-80.273708,27.70,0.02,12,4,0.79,0.00,0,,,,
870603,2026-07-02T07:03:23Z,88.64,-42.68,-0.00,76.6,45.7,1,26.806820,-80.273712,27.00,0.09,12,5,0.87,0.00,0,,,,
875603,2026-07-02T07:03:28Z,88.61,-42.71,-0.01,76.5,45.6,1,26.806814,-80.273715,27.20,0.63,12,5,0.81,0.00,0,,,,
880603,2026-07-02T07:03:33Z,88.59,-42.75,-0.01,76.4,45.7,1,26.806811,-80.273717,26.10,0.46,12,5,0.80,0.00,0,,,,
885603,2026-07-02T07:03:38Z,88.55,-42.80,0.01,76.6,45.7,1,26.806809,-80.273712,26.50,0.06,12,5,1.05,0.00,0,,,,
890603,2026-07-02T07:03:43Z,88.48,-42.94,-0.00,76.5,45.8,1,26.806807,-80.273706,27.10,0.07,12,5,0.85,0.00,0,,,,
895603,2026-07-02T07:03:48Z,88.56,-42.78,0.01,76.5,45.7,1,26.806806,-80.273702,27.20,0.28,12,5,0.94,0.00,0,,,,
900604,2026-07-02T07:03:53Z,88.53,-42.81,-0.00,76.5,45.8,1,26.806808,-80.273701,26.50,0.06,12,6,0.93,0.00,0,,,,
905605,2026-07-02T07:03:58Z,88.51,-42.83,-0.01,76.6,45.8,1,26.806808,-80.273702,26.60,0.35,12,6,0.97,0.00,0,,,,
910605,2026-07-02T07:04:03Z,88.50,-42.82,-0.00,76.6,45.9,1,26.806808,-80.273701,27.40,0.13,12,6,1.00,0.00,0,,,,
915606,2026-07-02T07:04:08Z,88.50,-42.83,0.00,76.6,45.9,1,26.806808,-80.273699,28.30,0.52,12,6,1.19,0.00,0,,,,
920606,2026-07-02T07:04:13Z,88.44,-42.90,-0.01,76.6,45.7,1,26.806810,-80.273699,28.20,0.28,12,6,1.07,0.00,0,,,,
925607,2026-07-02T07:04:18Z,88.49,-42.85,-0.00,76.6,45.7,1,26.806811,-80.273702,28.70,0.20,12,6,1.07,0.00,0,,,,
930607,2026-07-02T07:04:23Z,88.44,-42.86,0.01,76.6,45.7,1,26.806812,-80.273706,28.80,0.30,12,7,1.07,0.00,0,,,,
935607,2026-07-02T07:04:28Z,88.46,-42.88,-0.00,76.6,45.7,1,26.806810,-80.273709,28.00,0.19,12,7,0.87,0.00,0,,,,
940607,2026-07-02T07:04:33Z,88.44,-42.88,-0.00,76.6,45.7,1,26.806805,-80.273712,25.40,0.30,12,6,0.84,0.00,0,,,,
945607,2026-07-02T07:04:38Z,88.48,-42.85,0.01,76.6,45.7,1,26.806803,-80.273714,22.60,0.17,12,5,0.90,0.00,0,,,,
950607,2026-07-02T07:04:43Z,88.46,-42.83,-0.01,76.6,45.7,1,26.806804,-80.273718,20.40,0.43,12,5,0.75,0.00,0,,,,
955607,2026-07-02T07:04:48Z,88.43,-42.91,0.01,76.6,45.6,1,26.806804,-80.273720,19.50,0.30,12,5,0.81,0.00,0,,,,
960607,2026-07-02T07:04:53Z,88.49,-42.81,0.00,76.6,45.6,1,26.806801,-80.273719,18.30,0.13,12,5,0.74,0.00,0,,,,
965607,2026-07-02T07:04:58Z,88.50,-42.79,0.01,76.6,45.5,1,26.806800,-80.273720,17.40,0.48,12,5,0.76,0.00,0,,,,
970607,2026-07-02T07:05:03Z,88.44,-42.86,0.01,76.6,45.5,1,26.806798,-80.273720,16.20,0.26,12,5,0.74,0.00,0,,,,
975607,2026-07-02T07:05:08Z,88.44,-42.88,-0.01,76.6,45.5,1,26.806796,-80.273721,15.60,0.19,12,5,0.74,0.00,0,,,,
980607,2026-07-02T07:05:13Z,88.44,-42.87,-0.00,76.6,45.4,1,26.806795,-80.273717,16.20,0.33,12,5,0.78,0.00,0,,,,
985607,2026-07-02T07:05:18Z,88.40,-42.90,-0.00,76.5,45.4,1,26.806794,-80.273714,16.70,0.22,12,4,0.84,0.00,0,,,,
990607,2026-07-02T07:05:23Z,88.43,-42.83,0.00,76.6,45.4,1,26.806792,-80.273714,16.00,0.13,12,4,0.82,0.00,0,,,,
995607,2026-07-02T07:05:28Z,88.46,-42.89,-0.00,76.5,45.4,1,26.806791,-80.273712,15.80,0.24,12,5,0.69,0.00,0,,,,
1000607,2026-07-02T07:05:33Z,88.41,-42.92,-0.00,76.5,45.3,1,26.806789,-80.273712,15.40,0.17,12,5,0.83,0.00,0,,,,
1005607,2026-07-02T07:05:38Z,88.45,-42.85,-0.01,76.5,45.4,1,26.806788,-80.273712,14.90,0.02,12,5,0.76,0.00,0,,,,
1010607,2026-07-02T07:05:43Z,88.45,-42.92,0.01,76.5,45.3,1,26.806790,-80.273713,15.00,0.15,12,6,0.76,0.00,0,,,,
1015607,2026-07-02T07:05:48Z,88.41,-42.97,-0.00,76.5,45.3,1,26.806793,-80.273712,15.20,0.07,12,6,0.78,0.00,0,,,,
1020607,2026-07-02T07:05:53Z,88.48,-42.86,-0.00,76.5,45.2,1,26.806794,-80.273707,16.20,0.35,12,6,0.69,0.00,0,,,,
1025607,2026-07-02T07:05:58Z,88.45,-42.91,0.01,76.5,45.3,1,26.806795,-80.273702,17.00,0.07,12,6,0.74,0.00,0,,,,
1030609,2026-07-02T07:06:03Z,88.47,-42.86,0.01,76.6,45.3,1,26.806796,-80.273703,17.10,0.28,12,6,0.69,0.00,0,,,,
1035609,2026-07-02T07:06:08Z,88.46,-42.87,0.01,76.5,45.2,1,26.806797,-80.273701,17.00,0.09,12,5,0.68,0.00,0,,,,
1040611,2026-07-02T07:06:13Z,88.51,-42.79,0.01,76.5,45.3,1,26.806800,-80.273698,17.40,0.26,12,5,0.64,0.00,0,,,,
1045611,2026-07-02T07:06:18Z,88.45,-42.87,-0.01,76.5,45.2,1,26.806802,-80.273695,16.90,0.30,12,5,0.70,0.00,0,,,,
1050611,2026-07-02T07:06:23Z,88.48,-42.86,0.01,76.4,45.2,1,26.806804,-80.273696,16.30,0.17,12,5,0.77,0.00,0,,,,
1055612,2026-07-02T07:06:28Z,88.47,-42.85,-0.00,76.5,45.1,1,26.806808,-80.273701,15.30,0.06,12,5,0.74,0.00,0,,,,
1060612,2026-07-02T07:06:33Z,88.46,-42.88,-0.01,76.5,45.1,1,26.806811,-80.273707,14.90,0.19,12,4,0.71,0.00,0,,,,
1065612,2026-07-02T07:06:38Z,88.45,-42.96,-0.02,76.5,45.1,1,26.806813,-80.273707,13.90,0.39,12,4,0.71,0.00,0,,,,
1070612,2026-07-02T07:06:43Z,88.50,-42.84,0.01,76.5,45.1,1,26.806814,-80.273709,12.60,0.11,12,4,0.71,0.00,0,,,,
1075614,2026-07-02T07:06:48Z,88.55,-42.82,-0.01,76.4,45.1,1,26.806815,-80.273710,11.90,0.17,12,4,0.66,0.00,0,,,,
1080614,2026-07-02T07:06:53Z,88.49,-42.80,0.00,76.4,45.1,1,26.806815,-80.273713,12.00,0.28,12,5,0.72,0.00,0,,,,
1085614,2026-07-02T07:06:58Z,88.51,-42.84,0.00,76.4,45.1,1,26.806813,-80.273713,12.10,0.15,12,5,0.65,0.00,0,,,,
1090614,2026-07-02T07:07:03Z,88.49,-42.82,-0.01,76.4,45.1,1,26.806811,-80.273711,12.00,0.70,12,5,0.67,0.00,0,,,,
1095614,2026-07-02T07:07:08Z,88.47,-42.85,-0.01,76.4,45.1,1,26.806810,-80.273710,11.90,0.15,12,5,0.71,0.00,0,,,,
1100614,2026-07-02T07:07:13Z,88.41,-42.93,-0.01,76.4,45.0,1,26.806809,-80.273708,11.50,0.31,12,5,0.73,0.00,0,,,,
1105614,2026-07-02T07:07:18Z,88.44,-42.89,0.02,76.3,45.0,1,26.806809,-80.273702,10.30,0.11,12,5,0.75,0.00,0,,,,
1110615,2026-07-02T07:07:23Z,88.46,-42.87,-0.00,76.3,44.9,1,26.806809,-80.273693,9.20,0.22,12,5,0.71,0.00,0,,,,
1115616,2026-07-02T07:07:28Z,88.49,-42.82,0.02,76.4,45.0,1,26.806808,-80.273684,8.10,0.24,12,5,0.81,0.00,0,,,,
1120616,2026-07-02T07:07:33Z,88.46,-42.91,-0.00,76.4,44.9,1,26.806808,-80.273674,6.50,0.04,12,5,0.74,0.00,0,,,,
1125617,2026-07-02T07:07:38Z,88.51,-42.84,0.01,76.4,44.9,1,26.806807,-80.273673,6.30,0.20,12,5,0.78,0.00,0,,,,
1130617,2026-07-02T07:07:43Z,88.46,-42.87,0.00,76.3,44.9,1,26.806806,-80.273673,6.10,0.31,12,5,0.75,0.00,0,,,,
1135618,2026-07-02T07:07:48Z,88.45,-42.88,-0.01,76.3,44.9,1,26.806806,-80.273676,5.90,0.52,12,5,0.76,0.00,0,,,,
1140618,2026-07-02T07:07:53Z,88.46,-42.88,-0.01,76.3,44.8,1,26.806804,-80.273676,5.90,0.28,12,5,0.77,0.00,0,,,,
1145618,2026-07-02T07:07:58Z,88.41,-42.93,-0.03,76.3,44.8,1,26.806803,-80.273679,5.90,0.20,12,5,0.76,0.00,0,,,,
1150618,2026-07-02T07:08:03Z,88.48,-42.88,0.00,76.3,44.9,1,26.806803,-80.273693,7.70,0.24,12,5,0.72,0.00,0,,,,
1155618,2026-07-02T07:08:08Z,88.47,-42.85,0.00,76.2,44.9,1,26.806801,-80.273703,9.00,0.17,12,5,0.83,0.00,0,,,,
1160618,2026-07-02T07:08:13Z,88.42,-42.94,-0.01,76.3,44.9,1,26.806801,-80.273713,10.20,0.19,12,10,0.83,0.00,0,,,,
1165618,2026-07-02T07:08:18Z,88.41,-42.95,-0.00,76.2,44.9,1,26.806800,-80.273719,10.90,0.02,12,5,0.83,0.00,0,,,,
1170618,2026-07-02T07:08:23Z,88.41,-42.95,-0.01,76.1,44.9,1,26.806799,-80.273719,10.90,0.39,12,5,0.75,0.00,0,,,,
1175618,2026-07-02T07:08:28Z,89.26,-42.07,0.00,76.2,45.0,1,26.806794,-80.273722,10.50,0.07,12,6,0.69,0.00,0,,,,
1180618,2026-07-02T07:08:33Z,89.21,-42.13,-0.01,76.3,45.6,1,26.806789,-80.273726,14.00,0.06,12,5,0.68,0.00,0,,,,
1185618,2026-07-02T07:08:38Z,89.13,-42.21,-0.01,76.3,46.7,1,26.806784,-80.273733,17.10,0.41,12,5,0.70,0.00,0,,,,
1190627,2026-07-02T07:08:43Z,89.09,-42.28,-0.01,76.4,46.0,1,26.806779,-80.273740,20.40,1.06,12,7,0.66,0.00,0,,,,
1195628,2026-07-02T07:08:48Z,88.39,-42.95,-0.02,76.5,45.2,1,26.806779,-80.273738,22.50,0.11,12,5,0.74,0.00,0,,,,
1200630,2026-07-02T07:08:53Z,88.51,-43.01,-0.12,76.4,44.7,1,26.806780,-80.273727,18.90,1.94,12,5,0.69,0.00,0,,,,
1205630,2026-07-02T07:08:58Z,88.39,-42.95,0.00,76.4,44.5,1,26.806782,-80.273715,15.80,0.19,12,6,0.74,0.00,0,,,,
1210631,2026-07-02T07:09:03Z,89.11,-42.20,0.14,76.4,44.6,1,26.806785,-80.273710,13.10,0.91,12,6,0.66,0.00,0,,,,
1215634,2026-07-02T07:09:08Z,89.04,-42.32,-0.02,76.5,46.0,1,26.806788,-80.273715,14.10,0.35,12,11,0.76,0.00,0,,,,
1220689,2026-07-02T07:09:13Z,88.43,-42.95,-0.09,76.5,45.4,1,26.806803,-80.273721,16.10,0.48,12,5,0.72,0.00,0,,,,
1225689,2026-07-02T07:09:18Z,88.38,-42.93,0.00,76.5,44.6,1,26.806801,-80.273714,16.10,0.44,12,6,0.73,0.00,0,,,,
1230693,2026-07-02T07:09:23Z,88.43,-42.87,0.00,76.5,44.3,1,26.806794,-80.273709,16.80,0.15,12,6,0.68,0.00,0,,,,
1235694,2026-07-02T07:09:28Z,88.48,-42.85,0.01,76.6,44.2,1,26.806789,-80.273704,16.40,0.04,12,6,0.71,0.00,0,,,,
1240696,2026-07-02T07:09:33Z,88.44,-42.90,-0.02,76.5,44.2,1,26.806786,-80.273699,16.00,0.20,12,6,0.75,0.00,0,,,,
1245696,2026-07-02T07:09:38Z,88.40,-42.99,-0.01,76.5,44.2,1,26.806783,-80.273690,16.10,0.22,12,6,0.65,0.00,0,,,,
1250696,2026-07-02T07:09:43Z,88.39,-43.00,-0.02,76.5,44.2,1,26.806779,-80.273681,14.90,0.19,12,6,0.73,0.00,0,,,,
1255697,2026-07-02T07:09:48Z,88.47,-42.85,-0.00,76.4,44.2,1,26.806779,-80.273675,13.10,0.11,12,6,0.65,0.00,0,,,,
1260697,2026-07-02T07:09:53Z,88.51,-42.80,0.02,76.5,44.2,1,26.806778,-80.273674,11.30,0.15,12,6,0.74,0.00,0,,,,
1265699,2026-07-02T07:09:58Z,88.46,-42.83,0.00,76.4,44.3,1,26.806779,-80.273674,10.20,0.28,12,6,0.77,0.00,0,,,,
1270700,2026-07-02T07:10:03Z,88.46,-42.86,-0.01,76.5,44.2,1,26.806782,-80.273676,9.80,0.19,12,6,0.70,0.00,0,,,,
1275700,2026-07-02T07:10:08Z,88.51,-42.80,0.00,76.4,44.1,1,26.806783,-80.273678,9.20,0.26,12,11,0.70,0.00,0,,,,
1280701,2026-07-02T07:10:13Z,88.49,-42.80,0.00,76.3,44.2,1,26.806785,-80.273679,8.80,0.07,12,11,0.71,0.00,0,,,,
1285702,2026-07-02T07:10:18Z,88.57,-42.78,0.01,76.4,44.2,1,26.806787,-80.273683,9.20,0.11,12,6,0.75,0.00,0,,,,
1290705,2026-07-02T07:10:23Z,88.52,-42.82,-0.00,76.3,44.2,1,26.806787,-80.273684,9.70,0.19,12,11,0.97,0.00,0,,,,
1295707,2026-07-02T07:10:28Z,88.54,-42.81,-0.00,76.3,44.2,1,26.806788,-80.273685,10.20,0.15,12,11,0.88,0.00,0,,,,
1300708,2026-07-02T07:10:33Z,88.59,-42.71,0.00,76.3,44.2,1,26.806790,-80.273686,10.80,0.28,12,6,0.73,0.00,0,,,,
1305712,2026-07-02T07:10:38Z,88.59,-42.77,-0.01,76.4,44.3,1,26.806790,-80.273684,10.30,0.09,12,6,0.77,0.00,0,,,,
1310712,2026-07-02T07:10:43Z,88.62,-42.67,0.01,76.4,44.2,1,26.806788,-80.273683,9.60,0.28,12,11,0.80,0.00,0,,,,
1315712,2026-07-02T07:10:48Z,88.62,-42.70,0.00,76.4,44.2,1,26.806789,-80.273685,9.90,0.07,12,11,0.65,0.00,0,,,,
1320714,2026-07-02T07:10:53Z,88.66,-42.67,0.01,76.4,44.2,1,26.806791,-80.273688,9.90,0.28,12,10,0.73,0.00,0,,,,
1325715,2026-07-02T07:10:58Z,88.66,-42.69,0.00,76.3,44.1,1,26.806792,-80.273693,10.30,0.33,12,6,0.70,0.00,0,,,,
1330716,2026-07-02T07:11:03Z,88.65,-42.68,-0.01,76.4,44.2,1,26.806792,-80.273694,11.10,0.07,12,6,0.78,0.00,0,,,,
1335719,2026-07-02T07:11:08Z,88.68,-42.66,0.01,76.4,44.1,1,26.806792,-80.273696,12.40,0.19,12,6,0.96,0.00,0,,,,
1340719,2026-07-02T07:11:13Z,88.67,-42.63,-0.01,76.3,44.1,1,26.806792,-80.273696,13.70,0.20,12,6,0.80,0.00,0,,,,
1345719,2026-07-02T07:11:18Z,88.73,-42.59,-0.00,76.3,44.1,1,26.806793,-80.273696,15.00,0.35,12,6,0.95,0.00,0,,,,
1350719,2026-07-02T07:11:23Z,88.79,-42.56,-0.00,76.4,44.0,1,26.806795,-80.273695,16.10,0.35,12,6,0.76,0.00,0,,,,
1355720,2026-07-02T07:11:28Z,88.69,-42.58,0.00,76.4,44.0,1,26.806794,-80.273695,16.30,0.22,12,6,0.81,0.00,0,,,,
1360720,2026-07-02T07:11:33Z,88.84,-42.52,0.00,76.4,43.9,1,26.806794,-80.273693,15.90,0.22,12,6,0.77,0.00,0,,,,
1365727,2026-07-02T07:11:38Z,88.86,-42.48,0.00,76.3,43.9,1,26.806794,-80.273692,15.80,0.33,12,6,0.86,0.00,0,,,,
1370729,2026-07-02T07:11:43Z,88.84,-42.48,-0.01,76.4,43.9,1,26.806793,-80.273692,15.30,0.33,12,6,0.79,0.00,0,,,,
1375729,2026-07-02T07:11:48Z,88.88,-42.48,-0.01,76.4,44.0,1,26.806792,-80.273696,13.60,0.07,12,11,0.70,0.00,0,,,,
1380729,2026-07-02T07:11:53Z,88.95,-42.34,0.01,76.5,43.8,1,26.806793,-80.273701,13.30,0.26,12,11,0.64,0.00,0,,,,
1385730,2026-07-02T07:11:58Z,88.95,-42.36,0.00,76.5,43.8,1,26.806794,-80.273704,13.30,0.20,12,6,0.64,0.00,0,,,,
1390730,2026-07-02T07:12:03Z,89.00,-42.33,0.00,76.5,43.8,1,26.806796,-80.273709,14.00,0.24,12,6,0.67,0.00,0,,,,
1395732,2026-07-02T07:12:08Z,88.95,-42.38,-0.00,76.6,43.9,1,26.806799,-80.273712,14.70,0.17,12,6,0.66,0.00,0,,,,
1400739,2026-07-02T07:12:13Z,89.02,-42.29,-0.01,76.6,43.8,1,26.806800,-80.273717,15.10,0.20,12,6,0.66,0.00,0,,,,
1405740,2026-07-02T07:12:18Z,89.01,-42.33,0.00,76.5,43.7,1,26.806801,-80.273720,15.20,0.15,12,9,0.66,0.00,0,,,,
1410751,2026-07-02T07:12:23Z,89.04,-42.32,0.00,76.6,43.6,1,26.806801,-80.273723,15.40,0.06,12,6,0.69,0.00,0,,,,
1415751,2026-07-02T07:12:28Z,89.04,-42.30,0.00,76.6,43.7,1,26.806802,-80.273726,15.60,0.20,12,9,0.75,0.00,0,,,,
1420761,2026-07-02T07:12:33Z,89.04,-42.28,-0.01,76.7,43.7,1,26.806802,-80.273729,15.80,0.04,12,9,0.71,0.00,0,,,,
1425764,2026-07-02T07:12:38Z,89.10,-42.25,0.01,76.8,43.5,1,26.806803,-80.273731,16.00,0.19,12,6,0.65,0.00,0,,,,
1430766,2026-07-02T07:12:43Z,89.07,-42.23,0.00,76.7,43.6,1,26.806803,-80.273733,16.20,0.24,12,6,0.66,0.00,0,,,,
1435769,2026-07-02T07:12:48Z,89.05,-42.24,0.01,76.8,43.4,1,26.806803,-80.273735,16.30,0.11,12,6,0.64,0.00,0,,,,
1440771,2026-07-02T07:12:53Z,89.12,-42.17,0.01,76.9,43.3,1,26.806804,-80.273737,16.20,0.07,12,6,0.69,0.00,0,,,,
1445771,2026-07-02T07:12:58Z,89.11,-42.21,0.00,76.9,43.2,1,26.806804,-80.273737,16.00,0.17,12,6,0.66,0.00,0,,,,
1450772,2026-07-02T07:13:03Z,89.13,-42.19,0.01,76.9,43.2,1,26.806804,-80.273738,15.60,0.09,12,6,0.65,0.00,0,,,,
1455772,2026-07-02T07:13:08Z,89.14,-42.15,0.01,77.0,43.3,1,26.806802,-80.273739,14.90,0.13,12,6,0.65,0.00,0,,,,
1460778,2026-07-02T07:13:13Z,89.11,-42.19,0.01,77.0,43.2,1,26.806801,-80.273738,14.40,0.06,12,6,0.64,0.00,0,,,,
1465778,2026-07-02T07:13:18Z,89.10,-42.27,-0.01,77.0,42.9,1,26.806800,-80.273737,13.90,0.11,12,6,0.64,0.00,0,,,,
1470778,2026-07-02T07:13:23Z,89.09,-42.18,0.00,77.0,42.8,1,26.806800,-80.273736,13.80,0.19,12,6,0.64,0.00,0,,,,
1475780,2026-07-02T07:13:28Z,89.07,-42.26,-0.02,77.1,42.8,1,26.806800,-80.273734,13.90,0.04,12,6,0.65,0.00,0,,,,
1480780,2026-07-02T07:13:33Z,89.06,-42.26,-0.01,77.1,42.8,1,26.806800,-80.273732,13.70,0.26,12,6,0.64,0.00,0,,,,
1485780,2026-07-02T07:13:38Z,89.08,-42.24,-0.01,77.2,42.8,1,26.806799,-80.273730,13.30,0.15,12,6,0.64,0.00,0,,,,
1490783,2026-07-02T07:13:43Z,89.05,-42.26,0.00,77.3,42.7,1,26.806798,-80.273727,12.90,0.17,12,6,0.64,0.00,0,,,,
1495785,2026-07-02T07:13:48Z,89.02,-42.32,-0.00,77.2,42.8,1,26.806797,-80.273726,12.50,0.20,12,6,0.68,0.00,0,,,,
1500789,2026-07-02T07:13:53Z,89.01,-42.30,-0.01,77.3,42.7,1,26.806797,-80.273724,12.20,0.17,12,6,0.67,0.00,0,,,,
1505790,2026-07-02T07:13:58Z,89.02,-42.29,0.00,77.4,42.7,1,26.806798,-80.273722,12.00,0.04,12,6,0.67,0.00,0,,,,
1510790,2026-07-02T07:14:03Z,88.96,-42.35,-0.01,77.4,42.6,1,26.806798,-80.273721,11.80,0.04,12,5,0.69,0.00,0,,,,
1515790,2026-07-02T07:14:08Z,88.96,-42.38,-0.00,77.4,42.5,1,26.806798,-80.273720,11.60,0.31,12,5,0.69,0.00,0,,,,
1520794,2026-07-02T07:14:13Z,88.94,-42.41,0.00,77.4,42.5,1,26.806798,-80.273720,11.30,0.15,12,5,0.69,0.00,0,,,,
1525798,2026-07-02T07:14:18Z,88.91,-42.43,0.01,77.5,42.6,1,26.806798,-80.273720,11.20,0.07,12,5,0.72,0.00,0,,,,
1530798,2026-07-02T07:14:23Z,88.85,-42.52,-0.00,77.5,42.4,1,26.806798,-80.273719,11.20,0.19,12,5,0.66,0.00,0,,,,
1535798,2026-07-02T07:14:28Z,88.82,-42.51,-0.02,77.5,42.5,1,26.806797,-80.273716,10.90,0.19,12,5,0.72,0.00,0,,,,
1540800,2026-07-02T07:14:33Z,88.85,-42.48,-0.01,77.5,42.3,1,26.806797,-80.273712,10.40,0.26,12,5,0.83,0.00,0,,,,
1545801,2026-07-02T07:14:38Z,88.79,-42.53,-0.01,77.5,42.3,1,26.806796,-80.273712,10.50,0.26,12,9,0.82,0.00,0,,,,
1550803,2026-07-02T07:14:43Z,88.79,-42.54,-0.02,77.6,42.2,1,26.806796,-80.273711,11.00,0.28,12,6,0.83,0.00,0,,,,
1555808,2026-07-02T07:14:48Z,88.89,-42.45,-0.01,77.6,42.2,1,26.806795,-80.273712,11.50,0.24,12,8,0.82,0.00,0,,,,
1560809,2026-07-02T07:14:53Z,88.83,-42.49,0.00,77.6,42.2,1,26.806794,-80.273713,11.50,0.17,12,6,0.76,0.00,0,,,,
1565811,2026-07-02T07:14:58Z,88.87,-42.50,0.02,77.7,42.2,1,26.806793,-80.273713,11.90,0.13,12,9,0.76,0.00,0,,,,
1570814,2026-07-02T07:15:03Z,88.83,-42.50,-0.01,77.7,42.1,1,26.806793,-80.273711,12.30,0.30,12,8,0.76,0.00,0,,,,
1575828,2026-07-02T07:15:08Z,88.85,-42.51,0.00,77.7,42.1,1,26.806794,-80.273709,12.50,0.15,12,6,0.77,0.00,0,,,,
1580840,2026-07-02T07:15:13Z,88.87,-42.44,0.01,77.8,41.8,1,26.806794,-80.273708,12.40,0.22,12,8,0.76,0.00,0,,,,
1585843,2026-07-02T07:15:18Z,88.86,-42.47,0.00,77.9,41.7,1,26.806795,-80.273707,12.50,0.13,12,6,0.71,0.00,0,,,,
1590843,2026-07-02T07:15:23Z,88.82,-42.50,0.02,77.9,41.6,1,26.806796,-80.273707,13.00,0.09,12,7,0.71,0.00,0,,,,
1595844,2026-07-02T07:15:28Z,88.87,-42.45,0.02,77.8,41.6,1,26.806796,-80.273708,13.00,0.15,12,7,0.74,0.00,0,,,,
1600847,2026-07-02T07:15:33Z,88.91,-42.43,0.00,77.9,41.7,1,26.806795,-80.273709,12.70,0.19,12,5,0.74,0.00,0,,,,
1605847,2026-07-02T07:15:38Z,88.94,-42.36,0.00,77.9,41.8,1,26.806794,-80.273710,12.40,0.35,12,5,0.69,0.00,0,,,,
1610850,2026-07-02T07:15:43Z,88.92,-42.42,-0.00,78.0,41.7,1,26.806793,-80.273710,12.30,0.13,12,5,0.69,0.00,0,,,,
1615857,2026-07-02T07:15:48Z,88.88,-42.46,-0.00,77.9,41.7,1,26.806793,-80.273709,12.40,0.22,12,5,0.70,0.00,0,,,,
1620858,2026-07-02T07:15:53Z,88.96,-42.32,0.01,78.0,41.5,1,26.806793,-80.273708,12.50,0.33,12,5,0.71,0.00,0,,,,
1625858,2026-07-02T07:15:58Z,88.90,-42.42,-0.00,78.0,41.6,1,26.806792,-80.273707,12.80,0.11,12,5,0.66,0.00,0,,,,
1630858,2026-07-02T07:16:03Z,88.90,-42.40,0.00,78.1,41.7,1,26.806793,-80.273705,13.20,0.09,12,7,0.66,0.00,0,,,,
1635858,2026-07-02T07:16:08Z,88.92,-42.39,0.00,78.1,41.5,1,26.806794,-80.273705,13.60,0.13,12,5,0.64,0.00,0,,,,
1640860,2026-07-02T07:16:13Z,88.90,-42.41,-0.00,78.1,41.6,1,26.806795,-80.273705,14.00,0.02,12,7,0.66,0.00,0,,,,
1645860,2026-07-02T07:16:18Z,88.91,-42.42,0.00,78.1,41.6,1,26.806796,-80.273706,14.40,0.15,12,6,0.69,0.00,0,,,,
1650860,2026-07-02T07:16:23Z,88.90,-42.44,-0.00,78.1,41.4,1,26.806797,-80.273707,14.90,0.28,12,6,0.68,0.00,0,,,,
1655860,2026-07-02T07:16:28Z,88.92,-42.42,-0.01,78.1,41.4,1,26.806798,-80.273708,15.20,0.06,12,7,0.68,0.00,0,,,,
1660860,2026-07-02T07:16:33Z,88.92,-42.41,-0.01,78.1,41.4,1,26.806799,-80.273710,15.40,0.09,12,7,0.70,0.00,0,,,,
1665860,2026-07-02T07:16:38Z,88.95,-42.35,0.01,78.1,41.4,1,26.806800,-80.273711,15.70,0.15,12,8,0.70,0.00,0,,,,
1670860,2026-07-02T07:16:43Z,88.96,-42.35,0.01,78.1,41.3,1,26.806801,-80.273711,15.90,0.33,12,8,0.70,0.00,0,,,,
1675860,2026-07-02T07:16:48Z,88.96,-42.35,-0.00,78.2,41.4,1,26.806802,-80.273711,15.90,0.04,12,7,0.64,0.00,0,,,,
1680860,2026-07-02T07:16:53Z,88.95,-42.42,0.01,78.2,41.3,1,26.806802,-80.273711,15.90,0.19,12,7,0.67,0.00,0,,,,
1685862,2026-07-02T07:16:58Z,88.90,-42.42,-0.00,78.2,41.4,1,26.806803,-80.273713,15.80,0.15,12,7,0.66,0.00,0,,,,
1690862,2026-07-02T07:17:03Z,88.96,-42.38,0.01,78.2,41.5,1,26.806803,-80.273714,15.70,0.19,12,6,0.64,0.00,0,,,,
1695862,2026-07-02T07:17:08Z,88.94,-42.42,-0.01,78.3,41.1,1,26.806803,-80.273715,15.60,0.22,12,6,0.66,0.00,0,,,,
1700862,2026-07-02T07:17:13Z,88.93,-42.38,-0.01,78.3,41.2,1,26.806803,-80.273717,15.50,0.19,12,5,0.72,0.00,0,,,,
1705862,2026-07-02T07:17:18Z,88.95,-42.35,0.01,78.3,41.2,1,26.806802,-80.273717,15.40,0.13,12,7,0.66,0.00,0,,,,
1710862,2026-07-02T07:17:23Z,88.95,-42.36,-0.01,78.3,41.0,1,26.806801,-80.273718,15.60,0.30,12,6,0.66,0.00,0,,,,
1715862,2026-07-02T07:17:28Z,88.93,-42.41,0.01,78.3,41.2,1,26.806802,-80.273718,15.70,0.19,12,7,0.66,0.00,0,,,,
1720862,2026-07-02T07:17:33Z,88.89,-42.42,-0.01,78.3,41.0,1,26.806802,-80.273718,15.70,0.17,12,6,0.72,0.00,0,,,,
1725864,2026-07-02T07:17:38Z,88.88,-42.44,0.01,78.3,41.2,1,26.806802,-80.273717,15.70,0.04,12,7,0.70,0.00,0,,,,
1730864,2026-07-02T07:17:43Z,88.83,-42.53,-0.01,78.4,41.0,1,26.806802,-80.273716,15.90,0.22,12,6,0.75,0.00,0,,,,
1735864,2026-07-02T07:17:48Z,88.85,-42.46,-0.00,78.4,40.8,1,26.806802,-80.273715,16.50,0.11,12,9,0.70,0.00,0,,,,
